[{"city":"Aibak","state":"Afghanistan","abbr":"AF","country":"Afghanistan","lat":36.26468,"lng":68.01551,"population":47823,"region":"World"},{"city":"Andkhoy","state":"Afghanistan","abbr":"AF","country":"Afghanistan","lat":36.95293,"lng":65.12376,"population":37900,"region":"World"},{"city":"Art Khwajah","state":"Afghanistan","abbr":"AF","country":"Afghanistan","lat":37.08571,"lng":69.47958,"population":18623,"region":"World"},{"city":"Asadabad","state":"Afghanistan","abbr":"AF","country":"Afghanistan","lat":34.87311,"lng":71.14697,"population":48400,"region":"World"},{"city":"Asmar","state":"Afghanistan","abbr":"AF","country":"Afghanistan","lat":35.03333,"lng":71.35809,"population":15708,"region":"World"},{"city":"Baghlan","state":"Afghanistan","abbr":"AF","country":"Afghanistan","lat":36.13068,"lng":68.70829,"population":108449,"region":"World"},{"city":"Baharak","state":"Afghanistan","abbr":"AF","country":"Afghanistan","lat":37.00254,"lng":70.90664,"population":32551,"region":"World"},{"city":"Balkh","state":"Afghanistan","abbr":"AF","country":"Afghanistan","lat":36.75635,"lng":66.8972,"population":114883,"region":"World"},{"city":"Bamyan","state":"Afghanistan","abbr":"AF","country":"Afghanistan","lat":34.82156,"lng":67.82734,"population":61863,"region":"World"},{"city":"Baraki Barak","state":"Afghanistan","abbr":"AF","country":"Afghanistan","lat":33.96744,"lng":68.9492,"population":22305,"region":"World"},{"city":"Bazar-e Yakawlang","state":"Afghanistan","abbr":"AF","country":"Afghanistan","lat":34.73525,"lng":66.97379,"population":65000,"region":"World"},{"city":"Bazarak","state":"Afghanistan","abbr":"AF","country":"Afghanistan","lat":35.31292,"lng":69.51519,"population":65000,"region":"World"},{"city":"Charikar","state":"Afghanistan","abbr":"AF","country":"Afghanistan","lat":35.01361,"lng":69.17139,"population":53676,"region":"World"},{"city":"Eslam Qaleh","state":"Afghanistan","abbr":"AF","country":"Afghanistan","lat":34.66667,"lng":61.06667,"population":18086,"region":"World"},{"city":"Farah","state":"Afghanistan","abbr":"AF","country":"Afghanistan","lat":32.37451,"lng":62.11638,"population":43561,"region":"World"},{"city":"Fayzabad","state":"Afghanistan","abbr":"AF","country":"Afghanistan","lat":37.11664,"lng":70.58002,"population":44421,"region":"World"},{"city":"Gardez","state":"Afghanistan","abbr":"AF","country":"Afghanistan","lat":33.59744,"lng":69.22592,"population":103601,"region":"World"},{"city":"Gereshk","state":"Afghanistan","abbr":"AF","country":"Afghanistan","lat":31.82089,"lng":64.57005,"population":43588,"region":"World"},{"city":"Ghazni","state":"Afghanistan","abbr":"AF","country":"Afghanistan","lat":33.55391,"lng":68.42096,"population":141000,"region":"World"},{"city":"Ghormach","state":"Afghanistan","abbr":"AF","country":"Afghanistan","lat":35.73062,"lng":63.78264,"population":30000,"region":"World"},{"city":"Herat","state":"Afghanistan","abbr":"AF","country":"Afghanistan","lat":34.34817,"lng":62.19967,"population":574300,"region":"World"},{"city":"Istalif","state":"Afghanistan","abbr":"AF","country":"Afghanistan","lat":34.83268,"lng":69.07756,"population":41413,"region":"World"},{"city":"Jabal os Saraj","state":"Afghanistan","abbr":"AF","country":"Afghanistan","lat":35.11833,"lng":69.23778,"population":15032,"region":"World"},{"city":"Jalalabad","state":"Afghanistan","abbr":"AF","country":"Afghanistan","lat":34.42647,"lng":70.45153,"population":271900,"region":"World"},{"city":"Jurm","state":"Afghanistan","abbr":"AF","country":"Afghanistan","lat":36.86477,"lng":70.83421,"population":23064,"region":"World"},{"city":"Kabul","state":"Afghanistan","abbr":"AF","country":"Afghanistan","lat":34.52813,"lng":69.17233,"population":4434550,"region":"World"},{"city":"Kandahar","state":"Afghanistan","abbr":"AF","country":"Afghanistan","lat":31.61332,"lng":65.71013,"population":523300,"region":"World"},{"city":"Karukh","state":"Afghanistan","abbr":"AF","country":"Afghanistan","lat":34.48108,"lng":62.5863,"population":17484,"region":"World"},{"city":"Khan Neshin","state":"Afghanistan","abbr":"AF","country":"Afghanistan","lat":30.5488,"lng":63.7888,"population":25600,"region":"World"},{"city":"Khanabad","state":"Afghanistan","abbr":"AF","country":"Afghanistan","lat":36.68304,"lng":69.11279,"population":71531,"region":"World"},{"city":"Khash","state":"Afghanistan","abbr":"AF","country":"Afghanistan","lat":31.52919,"lng":62.79055,"population":15133,"region":"World"},{"city":"Khost","state":"Afghanistan","abbr":"AF","country":"Afghanistan","lat":33.33951,"lng":69.92041,"population":96123,"region":"World"},{"city":"Khulm","state":"Afghanistan","abbr":"AF","country":"Afghanistan","lat":36.69736,"lng":67.69826,"population":64933,"region":"World"},{"city":"Kunduz","state":"Afghanistan","abbr":"AF","country":"Afghanistan","lat":36.72895,"lng":68.857,"population":161902,"region":"World"},{"city":"Kushk","state":"Afghanistan","abbr":"AF","country":"Afghanistan","lat":33.29565,"lng":61.95221,"population":16952,"region":"World"},{"city":"Lashkar Gah","state":"Afghanistan","abbr":"AF","country":"Afghanistan","lat":31.59382,"lng":64.37161,"population":43934,"region":"World"},{"city":"Markaz-e Woluswali-ye Achin","state":"Afghanistan","abbr":"AF","country":"Afghanistan","lat":34.12583,"lng":70.70778,"population":15098,"region":"World"},{"city":"Maymana","state":"Afghanistan","abbr":"AF","country":"Afghanistan","lat":35.92139,"lng":64.78361,"population":75900,"region":"World"},{"city":"Mazar-e Sharif","state":"Afghanistan","abbr":"AF","country":"Afghanistan","lat":36.70904,"lng":67.11087,"population":523300,"region":"World"},{"city":"Mehtar Lam","state":"Afghanistan","abbr":"AF","country":"Afghanistan","lat":34.67139,"lng":70.20944,"population":17345,"region":"World"},{"city":"Nahrin","state":"Afghanistan","abbr":"AF","country":"Afghanistan","lat":36.0649,"lng":69.13343,"population":22363,"region":"World"},{"city":"Nili","state":"Afghanistan","abbr":"AF","country":"Afghanistan","lat":33.72178,"lng":66.13023,"population":30058,"region":"World"},{"city":"Paghman","state":"Afghanistan","abbr":"AF","country":"Afghanistan","lat":34.58787,"lng":68.95091,"population":49157,"region":"World"},{"city":"Pul-e Khumri","state":"Afghanistan","abbr":"AF","country":"Afghanistan","lat":35.94458,"lng":68.71512,"population":56369,"region":"World"},{"city":"Qarawul","state":"Afghanistan","abbr":"AF","country":"Afghanistan","lat":37.21959,"lng":68.7802,"population":24544,"region":"World"},{"city":"Qarqin","state":"Afghanistan","abbr":"AF","country":"Afghanistan","lat":37.41853,"lng":66.04358,"population":15018,"region":"World"},{"city":"Rustaq","state":"Afghanistan","abbr":"AF","country":"Afghanistan","lat":37.12604,"lng":69.83045,"population":25636,"region":"World"},{"city":"Sang-e Charak","state":"Afghanistan","abbr":"AF","country":"Afghanistan","lat":35.84972,"lng":66.43694,"population":15377,"region":"World"},{"city":"Sar-e Pul","state":"Afghanistan","abbr":"AF","country":"Afghanistan","lat":36.21544,"lng":65.93249,"population":52121,"region":"World"},{"city":"Shahrak","state":"Afghanistan","abbr":"AF","country":"Afghanistan","lat":34.10737,"lng":64.3052,"population":15967,"region":"World"},{"city":"Shibirghan","state":"Afghanistan","abbr":"AF","country":"Afghanistan","lat":36.66757,"lng":65.7529,"population":55641,"region":"World"},{"city":"Shindand","state":"Afghanistan","abbr":"AF","country":"Afghanistan","lat":33.30294,"lng":62.1474,"population":29264,"region":"World"},{"city":"Taloqan","state":"Afghanistan","abbr":"AF","country":"Afghanistan","lat":36.73605,"lng":69.53451,"population":64256,"region":"World"},{"city":"Zaranj","state":"Afghanistan","abbr":"AF","country":"Afghanistan","lat":30.95962,"lng":61.86037,"population":49851,"region":"World"},{"city":"Mariehamn","state":"Aland Islands","abbr":"AX","country":"Aland Islands","lat":60.09726,"lng":19.93481,"population":10682,"region":"EU"},{"city":"Berat","state":"Albania","abbr":"AL","country":"Albania","lat":40.70583,"lng":19.95222,"population":62232,"region":"EU"},{"city":"Bulqize","state":"Albania","abbr":"AL","country":"Albania","lat":41.49167,"lng":20.22194,"population":26826,"region":"EU"},{"city":"Durres","state":"Albania","abbr":"AL","country":"Albania","lat":41.32355,"lng":19.45469,"population":195920,"region":"EU"},{"city":"Elbasan","state":"Albania","abbr":"AL","country":"Albania","lat":41.11138,"lng":20.08224,"population":100903,"region":"EU"},{"city":"Fier","state":"Albania","abbr":"AL","country":"Albania","lat":40.7251,"lng":19.55823,"population":56297,"region":"EU"},{"city":"Fier-Cifci","state":"Albania","abbr":"AL","country":"Albania","lat":40.71667,"lng":19.56667,"population":60995,"region":"EU"},{"city":"Gjirokaster","state":"Albania","abbr":"AL","country":"Albania","lat":40.07583,"lng":20.13889,"population":23437,"region":"EU"},{"city":"Kavaje","state":"Albania","abbr":"AL","country":"Albania","lat":41.18556,"lng":19.55694,"population":30012,"region":"EU"},{"city":"Korce","state":"Albania","abbr":"AL","country":"Albania","lat":40.61861,"lng":20.78083,"population":58259,"region":"EU"},{"city":"Kruje","state":"Albania","abbr":"AL","country":"Albania","lat":41.50917,"lng":19.79278,"population":51191,"region":"EU"},{"city":"Kucove","state":"Albania","abbr":"AL","country":"Albania","lat":40.80028,"lng":19.91667,"population":31077,"region":"EU"},{"city":"Kukes","state":"Albania","abbr":"AL","country":"Albania","lat":42.07694,"lng":20.42194,"population":36125,"region":"EU"},{"city":"Lezhe","state":"Albania","abbr":"AL","country":"Albania","lat":41.78361,"lng":19.64361,"population":18695,"region":"EU"},{"city":"Librazhd","state":"Albania","abbr":"AL","country":"Albania","lat":41.17944,"lng":20.315,"population":23312,"region":"EU"},{"city":"Lushnje","state":"Albania","abbr":"AL","country":"Albania","lat":40.94194,"lng":19.705,"population":63135,"region":"EU"},{"city":"Patos","state":"Albania","abbr":"AL","country":"Albania","lat":40.68333,"lng":19.61944,"population":16000,"region":"EU"},{"city":"Patos Fshat","state":"Albania","abbr":"AL","country":"Albania","lat":40.64278,"lng":19.65083,"population":22679,"region":"EU"},{"city":"Peqin","state":"Albania","abbr":"AL","country":"Albania","lat":41.04611,"lng":19.75111,"population":16580,"region":"EU"},{"city":"Pogradec","state":"Albania","abbr":"AL","country":"Albania","lat":40.9025,"lng":20.6525,"population":46070,"region":"EU"},{"city":"Sarande","state":"Albania","abbr":"AL","country":"Albania","lat":39.87534,"lng":20.00477,"population":22613,"region":"EU"},{"city":"Shkoder","state":"Albania","abbr":"AL","country":"Albania","lat":42.06828,"lng":19.51258,"population":95553,"region":"EU"},{"city":"Tirana","state":"Albania","abbr":"AL","country":"Albania","lat":41.32744,"lng":19.81866,"population":418495,"region":"EU"},{"city":"Vlore","state":"Albania","abbr":"AL","country":"Albania","lat":40.4696,"lng":19.48379,"population":115261,"region":"EU"},{"city":"'Ain Abid","state":"Algeria","abbr":"DZ","country":"Algeria","lat":36.23194,"lng":6.94333,"population":29486,"region":"World"},{"city":"'Ain Azel","state":"Algeria","abbr":"DZ","country":"Algeria","lat":35.81846,"lng":5.51115,"population":37970,"region":"World"},{"city":"'Ain Benian","state":"Algeria","abbr":"DZ","country":"Algeria","lat":36.80277,"lng":2.92185,"population":31102,"region":"World"},{"city":"'Ain Deheb","state":"Algeria","abbr":"DZ","country":"Algeria","lat":34.84218,"lng":1.54697,"population":36146,"region":"World"},{"city":"'Ain el Bell","state":"Algeria","abbr":"DZ","country":"Algeria","lat":34.34381,"lng":3.22475,"population":31916,"region":"World"},{"city":"'Ain el Berd","state":"Algeria","abbr":"DZ","country":"Algeria","lat":35.36395,"lng":-0.51279,"population":16548,"region":"World"},{"city":"'Ain el Hammam","state":"Algeria","abbr":"DZ","country":"Algeria","lat":36.56471,"lng":4.30619,"population":28029,"region":"World"},{"city":"'Ain el Melh","state":"Algeria","abbr":"DZ","country":"Algeria","lat":34.84146,"lng":4.16383,"population":32880,"region":"World"},{"city":"'Ain el Turk","state":"Algeria","abbr":"DZ","country":"Algeria","lat":35.74381,"lng":-0.7693,"population":36326,"region":"World"},{"city":"'Ain Merane","state":"Algeria","abbr":"DZ","country":"Algeria","lat":36.16277,"lng":0.97037,"population":34413,"region":"World"},{"city":"Abou el Hassan","state":"Algeria","abbr":"DZ","country":"Algeria","lat":36.41657,"lng":1.19616,"population":24022,"region":"World"},{"city":"Adrar","state":"Algeria","abbr":"DZ","country":"Algeria","lat":27.87429,"lng":-0.29388,"population":68276,"region":"World"},{"city":"Aflou","state":"Algeria","abbr":"DZ","country":"Algeria","lat":34.11279,"lng":2.10228,"population":93585,"region":"World"},{"city":"Ahmed Bel Hadj","state":"Algeria","abbr":"DZ","country":"Algeria","lat":36.80146,"lng":7.60811,"population":29629,"region":"World"},{"city":"Ain Arnat","state":"Algeria","abbr":"DZ","country":"Algeria","lat":36.18683,"lng":5.31347,"population":25315,"region":"World"},{"city":"Ain Beida","state":"Algeria","abbr":"DZ","country":"Algeria","lat":35.79639,"lng":7.39278,"population":116064,"region":"World"},{"city":"Ain Bessem","state":"Algeria","abbr":"DZ","country":"Algeria","lat":36.29333,"lng":3.67319,"population":32548,"region":"World"},{"city":"Ain Defla","state":"Algeria","abbr":"DZ","country":"Algeria","lat":36.26405,"lng":1.9679,"population":55259,"region":"World"},{"city":"Ain el Bya","state":"Algeria","abbr":"DZ","country":"Algeria","lat":35.80389,"lng":-0.30178,"population":37241,"region":"World"},{"city":"Ain el Hadjel","state":"Algeria","abbr":"DZ","country":"Algeria","lat":35.67003,"lng":3.88153,"population":28728,"region":"World"},{"city":"Ain Fakroun","state":"Algeria","abbr":"DZ","country":"Algeria","lat":35.97108,"lng":6.87374,"population":48804,"region":"World"},{"city":"Ain Kercha","state":"Algeria","abbr":"DZ","country":"Algeria","lat":35.92472,"lng":6.69528,"population":30575,"region":"World"},{"city":"Ain M'Lila","state":"Algeria","abbr":"DZ","country":"Algeria","lat":36.03687,"lng":6.57219,"population":65371,"region":"World"},{"city":"Ain Oulmene","state":"Algeria","abbr":"DZ","country":"Algeria","lat":35.92296,"lng":5.29604,"population":51207,"region":"World"},{"city":"Ain Oussera","state":"Algeria","abbr":"DZ","country":"Algeria","lat":35.45139,"lng":2.90583,"population":98107,"region":"World"},{"city":"Ain Sefra","state":"Algeria","abbr":"DZ","country":"Algeria","lat":32.75,"lng":-0.58333,"population":47415,"region":"World"},{"city":"Ain Smara","state":"Algeria","abbr":"DZ","country":"Algeria","lat":36.2674,"lng":6.50135,"population":32057,"region":"World"},{"city":"Ain Taya","state":"Algeria","abbr":"DZ","country":"Algeria","lat":36.79333,"lng":3.28694,"population":33575,"region":"World"},{"city":"Ain Temouchent","state":"Algeria","abbr":"DZ","country":"Algeria","lat":35.29749,"lng":-1.14037,"population":70810,"region":"World"},{"city":"Ain Touta","state":"Algeria","abbr":"DZ","country":"Algeria","lat":35.37675,"lng":5.90001,"population":55736,"region":"World"},{"city":"Akbou","state":"Algeria","abbr":"DZ","country":"Algeria","lat":36.4575,"lng":4.53494,"population":38291,"region":"World"},{"city":"Algiers","state":"Algeria","abbr":"DZ","country":"Algeria","lat":36.73225,"lng":3.08746,"population":2364230,"region":"World"},{"city":"Ali Mendjeli","state":"Algeria","abbr":"DZ","country":"Algeria","lat":36.2459,"lng":6.5671,"population":64120,"region":"World"},{"city":"Amizour","state":"Algeria","abbr":"DZ","country":"Algeria","lat":36.64022,"lng":4.90131,"population":25825,"region":"World"},{"city":"Ammi Moussa","state":"Algeria","abbr":"DZ","country":"Algeria","lat":35.86781,"lng":1.11143,"population":27530,"region":"World"},{"city":"Annaba","state":"Algeria","abbr":"DZ","country":"Algeria","lat":36.9,"lng":7.76667,"population":342703,"region":"World"},{"city":"Aoulef","state":"Algeria","abbr":"DZ","country":"Algeria","lat":26.96667,"lng":1.08333,"population":21723,"region":"World"},{"city":"Arbatache","state":"Algeria","abbr":"DZ","country":"Algeria","lat":36.63773,"lng":3.37127,"population":17481,"region":"World"},{"city":"Arhribs","state":"Algeria","abbr":"DZ","country":"Algeria","lat":36.79361,"lng":4.31158,"population":23958,"region":"World"},{"city":"Arris","state":"Algeria","abbr":"DZ","country":"Algeria","lat":35.25881,"lng":6.34706,"population":36641,"region":"World"},{"city":"Arzew","state":"Algeria","abbr":"DZ","country":"Algeria","lat":35.85048,"lng":-0.318,"population":58162,"region":"World"},{"city":"Assi Bou Nif","state":"Algeria","abbr":"DZ","country":"Algeria","lat":35.69222,"lng":-0.49944,"population":53700,"region":"World"},{"city":"Azazga","state":"Algeria","abbr":"DZ","country":"Algeria","lat":36.74472,"lng":4.37222,"population":26515,"region":"World"},{"city":"Azzaba","state":"Algeria","abbr":"DZ","country":"Algeria","lat":36.73944,"lng":7.10528,"population":33766,"region":"World"},{"city":"Bab Ezzouar","state":"Algeria","abbr":"DZ","country":"Algeria","lat":36.72615,"lng":3.18291,"population":275630,"region":"World"},{"city":"Babor","state":"Algeria","abbr":"DZ","country":"Algeria","lat":36.48994,"lng":5.5393,"population":18445,"region":"World"},{"city":"Baraki","state":"Algeria","abbr":"DZ","country":"Algeria","lat":36.66655,"lng":3.09606,"population":105402,"region":"World"},{"city":"Barbacha","state":"Algeria","abbr":"DZ","country":"Algeria","lat":36.56667,"lng":4.96667,"population":31983,"region":"World"},{"city":"Barika","state":"Algeria","abbr":"DZ","country":"Algeria","lat":35.38901,"lng":5.36584,"population":98141,"region":"World"},{"city":"Batna City","state":"Algeria","abbr":"DZ","country":"Algeria","lat":35.55597,"lng":6.17414,"population":289504,"region":"World"},{"city":"Bechar","state":"Algeria","abbr":"DZ","country":"Algeria","lat":31.61667,"lng":-2.21667,"population":165241,"region":"World"},{"city":"Bejaia","state":"Algeria","abbr":"DZ","country":"Algeria","lat":36.75587,"lng":5.08433,"population":176139,"region":"World"},{"city":"Ben Mehidi","state":"Algeria","abbr":"DZ","country":"Algeria","lat":36.76967,"lng":7.90641,"population":28398,"region":"World"},{"city":"Beni Amrane","state":"Algeria","abbr":"DZ","country":"Algeria","lat":36.66774,"lng":3.59115,"population":18414,"region":"World"},{"city":"Beni Douala","state":"Algeria","abbr":"DZ","country":"Algeria","lat":36.61954,"lng":4.08282,"population":33611,"region":"World"},{"city":"Beni Mered","state":"Algeria","abbr":"DZ","country":"Algeria","lat":36.52389,"lng":2.86131,"population":92749,"region":"World"},{"city":"Beni Mester","state":"Algeria","abbr":"DZ","country":"Algeria","lat":34.87045,"lng":-1.42319,"population":19808,"region":"World"},{"city":"Beni Saf","state":"Algeria","abbr":"DZ","country":"Algeria","lat":35.30099,"lng":-1.38226,"population":39749,"region":"World"},{"city":"Beni Tamou","state":"Algeria","abbr":"DZ","country":"Algeria","lat":36.53833,"lng":2.82174,"population":33846,"region":"World"},{"city":"Bensekrane","state":"Algeria","abbr":"DZ","country":"Algeria","lat":35.07465,"lng":-1.22431,"population":21283,"region":"World"},{"city":"Berrahal","state":"Algeria","abbr":"DZ","country":"Algeria","lat":36.83528,"lng":7.45333,"population":19294,"region":"World"},{"city":"Berriane","state":"Algeria","abbr":"DZ","country":"Algeria","lat":32.82648,"lng":3.76689,"population":30170,"region":"World"},{"city":"Berrouaghia","state":"Algeria","abbr":"DZ","country":"Algeria","lat":36.13516,"lng":2.91085,"population":55775,"region":"World"},{"city":"Besbes","state":"Algeria","abbr":"DZ","country":"Algeria","lat":36.70222,"lng":7.84722,"population":66287,"region":"World"},{"city":"Bir el Ater","state":"Algeria","abbr":"DZ","country":"Algeria","lat":34.74488,"lng":8.06024,"population":70749,"region":"World"},{"city":"Bir el Djir","state":"Algeria","abbr":"DZ","country":"Algeria","lat":35.72,"lng":-0.545,"population":68032,"region":"World"},{"city":"Birine","state":"Algeria","abbr":"DZ","country":"Algeria","lat":35.635,"lng":3.225,"population":26670,"region":"World"},{"city":"Birkhadem","state":"Algeria","abbr":"DZ","country":"Algeria","lat":36.71499,"lng":3.05002,"population":71722,"region":"World"},{"city":"Biskra","state":"Algeria","abbr":"DZ","country":"Algeria","lat":34.85038,"lng":5.72805,"population":204661,"region":"World"},{"city":"Blida","state":"Algeria","abbr":"DZ","country":"Algeria","lat":36.47004,"lng":2.8277,"population":331779,"region":"World"},{"city":"Boghni","state":"Algeria","abbr":"DZ","country":"Algeria","lat":36.54222,"lng":3.95306,"population":54666,"region":"World"},{"city":"Bordj Bou Arreridj","state":"Algeria","abbr":"DZ","country":"Algeria","lat":36.07389,"lng":4.76139,"population":158812,"region":"World"},{"city":"Bordj el Bahri","state":"Algeria","abbr":"DZ","country":"Algeria","lat":36.79068,"lng":3.24952,"population":52816,"region":"World"},{"city":"Bordj el Kiffan","state":"Algeria","abbr":"DZ","country":"Algeria","lat":36.74871,"lng":3.19249,"population":123246,"region":"World"},{"city":"Bordj Ghdir","state":"Algeria","abbr":"DZ","country":"Algeria","lat":35.90111,"lng":4.89806,"population":34136,"region":"World"},{"city":"Bordj Menaiel","state":"Algeria","abbr":"DZ","country":"Algeria","lat":36.74328,"lng":3.7173,"population":44572,"region":"World"},{"city":"Bordj Zemoura","state":"Algeria","abbr":"DZ","country":"Algeria","lat":36.27462,"lng":4.85668,"population":19782,"region":"World"},{"city":"Bou Arfa","state":"Algeria","abbr":"DZ","country":"Algeria","lat":36.46298,"lng":2.81464,"population":44143,"region":"World"},{"city":"Bou Hanifia el Hamamat","state":"Algeria","abbr":"DZ","country":"Algeria","lat":35.31473,"lng":-0.05037,"population":27576,"region":"World"},{"city":"Bou Ismail","state":"Algeria","abbr":"DZ","country":"Algeria","lat":36.64262,"lng":2.69007,"population":40984,"region":"World"},{"city":"Bou Saada","state":"Algeria","abbr":"DZ","country":"Algeria","lat":35.20855,"lng":4.17402,"population":111787,"region":"World"},{"city":"Bou Tlelis","state":"Algeria","abbr":"DZ","country":"Algeria","lat":35.57272,"lng":-0.8996,"population":26144,"region":"World"},{"city":"Boudjima","state":"Algeria","abbr":"DZ","country":"Algeria","lat":36.80218,"lng":4.15187,"population":20557,"region":"World"},{"city":"Boudouaou","state":"Algeria","abbr":"DZ","country":"Algeria","lat":36.72735,"lng":3.40995,"population":56398,"region":"World"},{"city":"Boufarik","state":"Algeria","abbr":"DZ","country":"Algeria","lat":36.57413,"lng":2.91214,"population":57162,"region":"World"},{"city":"Bougaa","state":"Algeria","abbr":"DZ","country":"Algeria","lat":36.33293,"lng":5.08843,"population":31922,"region":"World"},{"city":"Bougara","state":"Algeria","abbr":"DZ","country":"Algeria","lat":36.54178,"lng":3.081,"population":38352,"region":"World"},{"city":"Bouinan","state":"Algeria","abbr":"DZ","country":"Algeria","lat":36.53167,"lng":2.99194,"population":30271,"region":"World"},{"city":"Bouira","state":"Algeria","abbr":"DZ","country":"Algeria","lat":36.37489,"lng":3.902,"population":68545,"region":"World"},{"city":"Boukadir","state":"Algeria","abbr":"DZ","country":"Algeria","lat":36.06629,"lng":1.12602,"population":28652,"region":"World"},{"city":"Boumahra Ahmed","state":"Algeria","abbr":"DZ","country":"Algeria","lat":36.45833,"lng":7.51389,"population":23022,"region":"World"},{"city":"Boumerdas","state":"Algeria","abbr":"DZ","country":"Algeria","lat":36.76639,"lng":3.47717,"population":28996,"region":"World"},{"city":"Brezina","state":"Algeria","abbr":"DZ","country":"Algeria","lat":33.09892,"lng":1.26082,"population":19084,"region":"World"},{"city":"Chabet el Ameur","state":"Algeria","abbr":"DZ","country":"Algeria","lat":36.63709,"lng":3.69474,"population":19522,"region":"World"},{"city":"Charef","state":"Algeria","abbr":"DZ","country":"Algeria","lat":34.62098,"lng":2.79503,"population":27700,"region":"World"},{"city":"Chebli","state":"Algeria","abbr":"DZ","country":"Algeria","lat":36.57722,"lng":3.00917,"population":19901,"region":"World"},{"city":"Chelghoum el Aid","state":"Algeria","abbr":"DZ","country":"Algeria","lat":36.16286,"lng":6.16651,"population":54495,"region":"World"},{"city":"Chellalat el Adhaouara","state":"Algeria","abbr":"DZ","country":"Algeria","lat":35.93968,"lng":3.41588,"population":26077,"region":"World"},{"city":"Chemini","state":"Algeria","abbr":"DZ","country":"Algeria","lat":36.6,"lng":4.61667,"population":21585,"region":"World"},{"city":"Cheraga","state":"Algeria","abbr":"DZ","country":"Algeria","lat":36.76775,"lng":2.95924,"population":27835,"region":"World"},{"city":"Cherchell","state":"Algeria","abbr":"DZ","country":"Algeria","lat":36.605,"lng":2.19083,"population":34372,"region":"World"},{"city":"Cheria","state":"Algeria","abbr":"DZ","country":"Algeria","lat":35.27306,"lng":7.75194,"population":66160,"region":"World"},{"city":"Chetouane","state":"Algeria","abbr":"DZ","country":"Algeria","lat":34.92129,"lng":-1.29512,"population":36776,"region":"World"},{"city":"Chiffa","state":"Algeria","abbr":"DZ","country":"Algeria","lat":36.46293,"lng":2.73873,"population":23218,"region":"World"},{"city":"Chlef","state":"Algeria","abbr":"DZ","country":"Algeria","lat":36.16525,"lng":1.33452,"population":178616,"region":"World"},{"city":"Chorfa","state":"Algeria","abbr":"DZ","country":"Algeria","lat":36.36505,"lng":4.32636,"population":20556,"region":"World"},{"city":"Collo","state":"Algeria","abbr":"DZ","country":"Algeria","lat":37.00563,"lng":6.56049,"population":29354,"region":"World"},{"city":"Constantine","state":"Algeria","abbr":"DZ","country":"Algeria","lat":36.365,"lng":6.61472,"population":448028,"region":"World"},{"city":"Dar Chioukh","state":"Algeria","abbr":"DZ","country":"Algeria","lat":34.89638,"lng":3.48543,"population":26605,"region":"World"},{"city":"Dar el Beida","state":"Algeria","abbr":"DZ","country":"Algeria","lat":36.71333,"lng":3.2125,"population":37311,"region":"World"},{"city":"Debila","state":"Algeria","abbr":"DZ","country":"Algeria","lat":33.51667,"lng":6.95,"population":36834,"region":"World"},{"city":"Dellys","state":"Algeria","abbr":"DZ","country":"Algeria","lat":36.91716,"lng":3.91311,"population":26384,"region":"World"},{"city":"Didouche Mourad","state":"Algeria","abbr":"DZ","country":"Algeria","lat":36.4525,"lng":6.63639,"population":25764,"region":"World"},{"city":"District of Taher","state":"Algeria","abbr":"DZ","country":"Algeria","lat":36.772,"lng":5.8982,"population":60426,"region":"World"},{"city":"Djamaa","state":"Algeria","abbr":"DZ","country":"Algeria","lat":33.53388,"lng":5.99306,"population":34920,"region":"World"},{"city":"Djelfa","state":"Algeria","abbr":"DZ","country":"Algeria","lat":34.67279,"lng":3.263,"population":265833,"region":"World"},{"city":"Djidiouia","state":"Algeria","abbr":"DZ","country":"Algeria","lat":35.92989,"lng":0.82871,"population":31996,"region":"World"},{"city":"Douera","state":"Algeria","abbr":"DZ","country":"Algeria","lat":36.67,"lng":2.94444,"population":46266,"region":"World"},{"city":"Draa Ben Khedda","state":"Algeria","abbr":"DZ","country":"Algeria","lat":36.73436,"lng":3.96223,"population":29403,"region":"World"},{"city":"Draa el Mizan","state":"Algeria","abbr":"DZ","country":"Algeria","lat":36.53628,"lng":3.8334,"population":41263,"region":"World"},{"city":"Drean","state":"Algeria","abbr":"DZ","country":"Algeria","lat":36.68482,"lng":7.75111,"population":55147,"region":"World"},{"city":"Ech Chettia","state":"Algeria","abbr":"DZ","country":"Algeria","lat":36.19591,"lng":1.25537,"population":60170,"region":"World"},{"city":"El Abadia","state":"Algeria","abbr":"DZ","country":"Algeria","lat":36.26951,"lng":1.68609,"population":27185,"region":"World"},{"city":"El Abiodh Sidi Cheikh","state":"Algeria","abbr":"DZ","country":"Algeria","lat":32.893,"lng":0.54839,"population":39283,"region":"World"},{"city":"El Achir","state":"Algeria","abbr":"DZ","country":"Algeria","lat":36.06386,"lng":4.62744,"population":158333,"region":"World"},{"city":"El Affroun","state":"Algeria","abbr":"DZ","country":"Algeria","lat":36.4701,"lng":2.62528,"population":35074,"region":"World"},{"city":"El Amria","state":"Algeria","abbr":"DZ","country":"Algeria","lat":35.52439,"lng":-1.01577,"population":26407,"region":"World"},{"city":"El Aouinet","state":"Algeria","abbr":"DZ","country":"Algeria","lat":35.86691,"lng":7.88673,"population":32971,"region":"World"},{"city":"El Arrouch","state":"Algeria","abbr":"DZ","country":"Algeria","lat":36.65306,"lng":6.83639,"population":33085,"region":"World"},{"city":"El Attaf","state":"Algeria","abbr":"DZ","country":"Algeria","lat":36.22393,"lng":1.67187,"population":33349,"region":"World"},{"city":"El Bayadh","state":"Algeria","abbr":"DZ","country":"Algeria","lat":33.68318,"lng":1.01927,"population":85577,"region":"World"},{"city":"El Eulma","state":"Algeria","abbr":"DZ","country":"Algeria","lat":36.15281,"lng":5.69016,"population":145380,"region":"World"},{"city":"El Hadjar","state":"Algeria","abbr":"DZ","country":"Algeria","lat":36.80377,"lng":7.73684,"population":26060,"region":"World"},{"city":"El Hadjira","state":"Algeria","abbr":"DZ","country":"Algeria","lat":32.61336,"lng":5.51259,"population":39744,"region":"World"},{"city":"el hed","state":"Algeria","abbr":"DZ","country":"Algeria","lat":36.65,"lng":4.77361,"population":31890,"region":"World"},{"city":"El Idrissia","state":"Algeria","abbr":"DZ","country":"Algeria","lat":34.44542,"lng":2.52749,"population":29856,"region":"World"},{"city":"El Kala","state":"Algeria","abbr":"DZ","country":"Algeria","lat":36.89556,"lng":8.44333,"population":35449,"region":"World"},{"city":"El Khroub","state":"Algeria","abbr":"DZ","country":"Algeria","lat":36.26333,"lng":6.69361,"population":90122,"region":"World"},{"city":"El Kseur","state":"Algeria","abbr":"DZ","country":"Algeria","lat":36.67942,"lng":4.8555,"population":26050,"region":"World"},{"city":"El Malah","state":"Algeria","abbr":"DZ","country":"Algeria","lat":35.39137,"lng":-1.09238,"population":19415,"region":"World"},{"city":"El Meghaier","state":"Algeria","abbr":"DZ","country":"Algeria","lat":33.95139,"lng":5.92222,"population":39106,"region":"World"},{"city":"El Menia","state":"Algeria","abbr":"DZ","country":"Algeria","lat":30.57556,"lng":2.88417,"population":57344,"region":"World"},{"city":"El Milia","state":"Algeria","abbr":"DZ","country":"Algeria","lat":36.75472,"lng":6.2725,"population":45945,"region":"World"},{"city":"El Oued","state":"Algeria","abbr":"DZ","country":"Algeria","lat":33.35608,"lng":6.86319,"population":186525,"region":"World"},{"city":"En Nedjma","state":"Algeria","abbr":"DZ","country":"Algeria","lat":35.64785,"lng":-0.5695,"population":51665,"region":"World"},{"city":"Es Senia","state":"Algeria","abbr":"DZ","country":"Algeria","lat":35.64779,"lng":-0.62397,"population":39064,"region":"World"},{"city":"Fedj M'Zala","state":"Algeria","abbr":"DZ","country":"Algeria","lat":36.40937,"lng":5.94463,"population":26176,"region":"World"},{"city":"Feidh el Botma","state":"Algeria","abbr":"DZ","country":"Algeria","lat":34.5,"lng":3.76667,"population":26857,"region":"World"},{"city":"Feraoun","state":"Algeria","abbr":"DZ","country":"Algeria","lat":36.56041,"lng":4.85454,"population":21700,"region":"World"},{"city":"Freha","state":"Algeria","abbr":"DZ","country":"Algeria","lat":36.75234,"lng":4.3155,"population":31068,"region":"World"},{"city":"Frenda","state":"Algeria","abbr":"DZ","country":"Algeria","lat":35.06544,"lng":1.04945,"population":49376,"region":"World"},{"city":"Gdyel","state":"Algeria","abbr":"DZ","country":"Algeria","lat":35.78111,"lng":-0.42581,"population":32774,"region":"World"},{"city":"Ghardaia","state":"Algeria","abbr":"DZ","country":"Algeria","lat":32.49094,"lng":3.67347,"population":142913,"region":"World"},{"city":"Ghazaouet","state":"Algeria","abbr":"DZ","country":"Algeria","lat":35.09579,"lng":-1.85772,"population":28433,"region":"World"},{"city":"Grarem","state":"Algeria","abbr":"DZ","country":"Algeria","lat":36.51611,"lng":6.32722,"population":28551,"region":"World"},{"city":"Guelma","state":"Algeria","abbr":"DZ","country":"Algeria","lat":36.46214,"lng":7.42608,"population":120004,"region":"World"},{"city":"Guemar","state":"Algeria","abbr":"DZ","country":"Algeria","lat":33.48529,"lng":6.79693,"population":48413,"region":"World"},{"city":"Guerara","state":"Algeria","abbr":"DZ","country":"Algeria","lat":32.79211,"lng":4.49949,"population":58572,"region":"World"},{"city":"Hadjout","state":"Algeria","abbr":"DZ","country":"Algeria","lat":36.51257,"lng":2.41382,"population":33830,"region":"World"},{"city":"Hamma Bouziane","state":"Algeria","abbr":"DZ","country":"Algeria","lat":36.41205,"lng":6.59603,"population":83603,"region":"World"},{"city":"Hammam Bou Hadjar","state":"Algeria","abbr":"DZ","country":"Algeria","lat":35.37889,"lng":-0.96778,"population":25912,"region":"World"},{"city":"Hammamet","state":"Algeria","abbr":"DZ","country":"Algeria","lat":35.44862,"lng":7.95184,"population":28536,"region":"World"},{"city":"Hassi Bahbah","state":"Algeria","abbr":"DZ","country":"Algeria","lat":35.07109,"lng":3.0299,"population":77000,"region":"World"},{"city":"Hassi Messaoud","state":"Algeria","abbr":"DZ","country":"Algeria","lat":31.68041,"lng":6.07286,"population":44478,"region":"World"},{"city":"Heliopolis","state":"Algeria","abbr":"DZ","country":"Algeria","lat":36.50361,"lng":7.44278,"population":40139,"region":"World"},{"city":"Hennaya","state":"Algeria","abbr":"DZ","country":"Algeria","lat":34.95139,"lng":-1.36806,"population":26515,"region":"World"},{"city":"Ighram","state":"Algeria","abbr":"DZ","country":"Algeria","lat":36.46295,"lng":4.50532,"population":15030,"region":"World"},{"city":"In Salah","state":"Algeria","abbr":"DZ","country":"Algeria","lat":27.19678,"lng":2.47913,"population":32518,"region":"World"},{"city":"Jijel","state":"Algeria","abbr":"DZ","country":"Algeria","lat":36.821,"lng":5.76352,"population":131513,"region":"World"},{"city":"Kais","state":"Algeria","abbr":"DZ","country":"Algeria","lat":35.49474,"lng":6.92492,"population":32668,"region":"World"},{"city":"Kerkera","state":"Algeria","abbr":"DZ","country":"Algeria","lat":36.92917,"lng":6.58556,"population":27177,"region":"World"},{"city":"Khemis el Khechna","state":"Algeria","abbr":"DZ","country":"Algeria","lat":36.64997,"lng":3.3308,"population":46965,"region":"World"},{"city":"Khemis Miliana","state":"Algeria","abbr":"DZ","country":"Algeria","lat":36.26104,"lng":2.22015,"population":80512,"region":"World"},{"city":"Khenchela","state":"Algeria","abbr":"DZ","country":"Algeria","lat":35.43583,"lng":7.14333,"population":114472,"region":"World"},{"city":"Kolea","state":"Algeria","abbr":"DZ","country":"Algeria","lat":36.63888,"lng":2.76845,"population":61643,"region":"World"},{"city":"Ksar Chellala","state":"Algeria","abbr":"DZ","country":"Algeria","lat":35.21222,"lng":2.31889,"population":51451,"region":"World"},{"city":"Ksar el Boukhari","state":"Algeria","abbr":"DZ","country":"Algeria","lat":35.88889,"lng":2.74905,"population":59634,"region":"World"},{"city":"L'Arbaa Nait Irathen","state":"Algeria","abbr":"DZ","country":"Algeria","lat":36.63112,"lng":4.19864,"population":30609,"region":"World"},{"city":"Laghouat","state":"Algeria","abbr":"DZ","country":"Algeria","lat":33.8,"lng":2.86514,"population":134372,"region":"World"},{"city":"Lakhdaria","state":"Algeria","abbr":"DZ","country":"Algeria","lat":36.56463,"lng":3.5933,"population":42886,"region":"World"},{"city":"Larbaa","state":"Algeria","abbr":"DZ","country":"Algeria","lat":36.56471,"lng":3.15434,"population":58295,"region":"World"},{"city":"Lardjem","state":"Algeria","abbr":"DZ","country":"Algeria","lat":35.74922,"lng":1.54778,"population":30000,"region":"World"},{"city":"M'Daourouch","state":"Algeria","abbr":"DZ","country":"Algeria","lat":36.07821,"lng":7.8196,"population":36351,"region":"World"},{"city":"M'Sila","state":"Algeria","abbr":"DZ","country":"Algeria","lat":35.70889,"lng":4.53722,"population":132975,"region":"World"},{"city":"Maatkas","state":"Algeria","abbr":"DZ","country":"Algeria","lat":36.60466,"lng":3.98437,"population":26142,"region":"World"},{"city":"Maghnia","state":"Algeria","abbr":"DZ","country":"Algeria","lat":34.84969,"lng":-1.72753,"population":87373,"region":"World"},{"city":"Makouda","state":"Algeria","abbr":"DZ","country":"Algeria","lat":36.78567,"lng":4.06273,"population":34515,"region":"World"},{"city":"Mansoura","state":"Algeria","abbr":"DZ","country":"Algeria","lat":34.86158,"lng":-1.33935,"population":52285,"region":"World"},{"city":"Mansourah","state":"Algeria","abbr":"DZ","country":"Algeria","lat":36.08725,"lng":4.45192,"population":22117,"region":"World"},{"city":"Mascara","state":"Algeria","abbr":"DZ","country":"Algeria","lat":35.39664,"lng":0.14027,"population":108629,"region":"World"},{"city":"Mazouna","state":"Algeria","abbr":"DZ","country":"Algeria","lat":36.12232,"lng":0.89865,"population":22366,"region":"World"},{"city":"Mecheria","state":"Algeria","abbr":"DZ","country":"Algeria","lat":33.54453,"lng":-0.28117,"population":65043,"region":"World"},{"city":"Medea","state":"Algeria","abbr":"DZ","country":"Algeria","lat":36.26417,"lng":2.75393,"population":145441,"region":"World"},{"city":"Meftah","state":"Algeria","abbr":"DZ","country":"Algeria","lat":36.6204,"lng":3.22248,"population":40878,"region":"World"},{"city":"Megarine","state":"Algeria","abbr":"DZ","country":"Algeria","lat":33.19195,"lng":6.08695,"population":31711,"region":"World"},{"city":"Mehdia daira de meghila","state":"Algeria","abbr":"DZ","country":"Algeria","lat":35.43058,"lng":1.75714,"population":31396,"region":"World"},{"city":"Mekla","state":"Algeria","abbr":"DZ","country":"Algeria","lat":36.68178,"lng":4.26378,"population":29560,"region":"World"},{"city":"Melouza","state":"Algeria","abbr":"DZ","country":"Algeria","lat":35.97999,"lng":4.18665,"population":25701,"region":"World"},{"city":"Merouana","state":"Algeria","abbr":"DZ","country":"Algeria","lat":35.63106,"lng":5.91186,"population":47646,"region":"World"},{"city":"Mers el Kebir","state":"Algeria","abbr":"DZ","country":"Algeria","lat":35.7279,"lng":-0.7081,"population":20178,"region":"World"},{"city":"Meskiana","state":"Algeria","abbr":"DZ","country":"Algeria","lat":35.63058,"lng":7.66606,"population":30071,"region":"World"},{"city":"Messaad","state":"Algeria","abbr":"DZ","country":"Algeria","lat":34.15429,"lng":3.50309,"population":97091,"region":"World"},{"city":"Metlili Chaamba","state":"Algeria","abbr":"DZ","country":"Algeria","lat":32.26667,"lng":3.63333,"population":39588,"region":"World"},{"city":"Mila","state":"Algeria","abbr":"DZ","country":"Algeria","lat":36.45028,"lng":6.26444,"population":63251,"region":"World"},{"city":"Miliana","state":"Algeria","abbr":"DZ","country":"Algeria","lat":36.30554,"lng":2.2248,"population":43366,"region":"World"},{"city":"Mohammadia","state":"Algeria","abbr":"DZ","country":"Algeria","lat":35.58861,"lng":0.06861,"population":62410,"region":"World"},{"city":"Mostaganem","state":"Algeria","abbr":"DZ","country":"Algeria","lat":35.93115,"lng":0.08918,"population":162885,"region":"World"},{"city":"Mouzaia","state":"Algeria","abbr":"DZ","country":"Algeria","lat":36.46695,"lng":2.68991,"population":28552,"region":"World"},{"city":"N'Gaous","state":"Algeria","abbr":"DZ","country":"Algeria","lat":35.555,"lng":5.61056,"population":29453,"region":"World"},{"city":"Naciria","state":"Algeria","abbr":"DZ","country":"Algeria","lat":36.74625,"lng":3.83163,"population":15387,"region":"World"},{"city":"Nedroma","state":"Algeria","abbr":"DZ","country":"Algeria","lat":35.01361,"lng":-1.74799,"population":27742,"region":"World"},{"city":"Oran","state":"Algeria","abbr":"DZ","country":"Algeria","lat":35.69906,"lng":-0.63588,"population":803329,"region":"World"},{"city":"Ouargla","state":"Algeria","abbr":"DZ","country":"Algeria","lat":31.94932,"lng":5.32502,"population":169928,"region":"World"},{"city":"Oued el Abtal","state":"Algeria","abbr":"DZ","country":"Algeria","lat":35.45595,"lng":0.68778,"population":22819,"region":"World"},{"city":"Oued el Alleug","state":"Algeria","abbr":"DZ","country":"Algeria","lat":36.55528,"lng":2.79028,"population":21146,"region":"World"},{"city":"Oued Fodda","state":"Algeria","abbr":"DZ","country":"Algeria","lat":36.18503,"lng":1.53299,"population":44523,"region":"World"},{"city":"Oued Rhiou","state":"Algeria","abbr":"DZ","country":"Algeria","lat":35.96124,"lng":0.91896,"population":55430,"region":"World"},{"city":"Oued Sly","state":"Algeria","abbr":"DZ","country":"Algeria","lat":36.10124,"lng":1.19949,"population":30504,"region":"World"},{"city":"Oued Zenati","state":"Algeria","abbr":"DZ","country":"Algeria","lat":36.31611,"lng":7.16364,"population":27441,"region":"World"},{"city":"Ouenza","state":"Algeria","abbr":"DZ","country":"Algeria","lat":35.95333,"lng":8.12917,"population":47312,"region":"World"},{"city":"Ouled Djellal","state":"Algeria","abbr":"DZ","country":"Algeria","lat":34.43,"lng":5.06139,"population":58481,"region":"World"},{"city":"Ouled Haddaj","state":"Algeria","abbr":"DZ","country":"Algeria","lat":36.71461,"lng":3.3422,"population":29012,"region":"World"},{"city":"Ouled Mimoun","state":"Algeria","abbr":"DZ","country":"Algeria","lat":34.90472,"lng":-1.03394,"population":25377,"region":"World"},{"city":"Ouled Moussa","state":"Algeria","abbr":"DZ","country":"Algeria","lat":36.68394,"lng":3.36661,"population":40692,"region":"World"},{"city":"Ouled Slama Fouaga","state":"Algeria","abbr":"DZ","country":"Algeria","lat":36.54828,"lng":3.11006,"population":27573,"region":"World"},{"city":"Oum el Bouaghi","state":"Algeria","abbr":"DZ","country":"Algeria","lat":35.87541,"lng":7.11353,"population":67201,"region":"World"},{"city":"Rais Hamidou","state":"Algeria","abbr":"DZ","country":"Algeria","lat":36.81688,"lng":3.0127,"population":30000,"region":"World"},{"city":"Ras el Aioun","state":"Algeria","abbr":"DZ","country":"Algeria","lat":35.67384,"lng":5.6453,"population":34167,"region":"World"},{"city":"Ras el Oued","state":"Algeria","abbr":"DZ","country":"Algeria","lat":35.9441,"lng":5.03107,"population":44947,"region":"World"},{"city":"Reggane","state":"Algeria","abbr":"DZ","country":"Algeria","lat":26.71576,"lng":0.1714,"population":32974,"region":"World"},{"city":"Reghaia","state":"Algeria","abbr":"DZ","country":"Algeria","lat":36.73587,"lng":3.34018,"population":54962,"region":"World"},{"city":"Reguiba","state":"Algeria","abbr":"DZ","country":"Algeria","lat":33.56391,"lng":6.70326,"population":25210,"region":"World"},{"city":"Relizane","state":"Algeria","abbr":"DZ","country":"Algeria","lat":35.73734,"lng":0.55599,"population":123255,"region":"World"},{"city":"Remchi","state":"Algeria","abbr":"DZ","country":"Algeria","lat":35.06196,"lng":-1.43362,"population":31837,"region":"World"},{"city":"Robbah","state":"Algeria","abbr":"DZ","country":"Algeria","lat":33.27967,"lng":6.90984,"population":30446,"region":"World"},{"city":"Rouached","state":"Algeria","abbr":"DZ","country":"Algeria","lat":36.45774,"lng":6.04267,"population":40263,"region":"World"},{"city":"Rouiba","state":"Algeria","abbr":"DZ","country":"Algeria","lat":36.73829,"lng":3.28079,"population":117558,"region":"World"},{"city":"Rouissat","state":"Algeria","abbr":"DZ","country":"Algeria","lat":31.92427,"lng":5.35018,"population":80784,"region":"World"},{"city":"Saida","state":"Algeria","abbr":"DZ","country":"Algeria","lat":34.83033,"lng":0.15171,"population":142497,"region":"World"},{"city":"Salah Bey","state":"Algeria","abbr":"DZ","country":"Algeria","lat":35.85451,"lng":5.29053,"population":23339,"region":"World"},{"city":"Saoula","state":"Algeria","abbr":"DZ","country":"Algeria","lat":36.70456,"lng":3.02462,"population":16812,"region":"World"},{"city":"Sebdou","state":"Algeria","abbr":"DZ","country":"Algeria","lat":34.63703,"lng":-1.33143,"population":32570,"region":"World"},{"city":"Seddouk","state":"Algeria","abbr":"DZ","country":"Algeria","lat":36.54722,"lng":4.68611,"population":19884,"region":"World"},{"city":"Sedrata","state":"Algeria","abbr":"DZ","country":"Algeria","lat":36.12868,"lng":7.53376,"population":45300,"region":"World"},{"city":"Setif","state":"Algeria","abbr":"DZ","country":"Algeria","lat":36.19112,"lng":5.41373,"population":252127,"region":"World"},{"city":"Sfizef","state":"Algeria","abbr":"DZ","country":"Algeria","lat":35.23464,"lng":-0.24435,"population":27914,"region":"World"},{"city":"Sidi Abdelli","state":"Algeria","abbr":"DZ","country":"Algeria","lat":35.06937,"lng":-1.13706,"population":23543,"region":"World"},{"city":"Sidi Aissa","state":"Algeria","abbr":"DZ","country":"Algeria","lat":35.88548,"lng":3.77236,"population":66856,"region":"World"},{"city":"Sidi Akkacha","state":"Algeria","abbr":"DZ","country":"Algeria","lat":36.46472,"lng":1.30258,"population":26558,"region":"World"},{"city":"Sidi Amar","state":"Algeria","abbr":"DZ","country":"Algeria","lat":36.82019,"lng":7.71641,"population":45148,"region":"World"},{"city":"Sidi Amrane","state":"Algeria","abbr":"DZ","country":"Algeria","lat":33.49885,"lng":6.00803,"population":29734,"region":"World"},{"city":"Sidi Bel Abbes","state":"Algeria","abbr":"DZ","country":"Algeria","lat":35.18994,"lng":-0.63085,"population":210146,"region":"World"},{"city":"Sidi ech Chahmi","state":"Algeria","abbr":"DZ","country":"Algeria","lat":35.65903,"lng":-0.52168,"population":35512,"region":"World"},{"city":"Sidi Khaled","state":"Algeria","abbr":"DZ","country":"Algeria","lat":34.387,"lng":4.98785,"population":38987,"region":"World"},{"city":"Sidi Merouane","state":"Algeria","abbr":"DZ","country":"Algeria","lat":36.52056,"lng":6.26111,"population":25129,"region":"World"},{"city":"Sidi Moussa","state":"Algeria","abbr":"DZ","country":"Algeria","lat":36.60637,"lng":3.08783,"population":30887,"region":"World"},{"city":"Sidi Okba","state":"Algeria","abbr":"DZ","country":"Algeria","lat":34.74512,"lng":5.89833,"population":29499,"region":"World"},{"city":"Sig","state":"Algeria","abbr":"DZ","country":"Algeria","lat":35.52832,"lng":-0.19369,"population":61373,"region":"World"},{"city":"Skikda","state":"Algeria","abbr":"DZ","country":"Algeria","lat":36.87617,"lng":6.90921,"population":182903,"region":"World"},{"city":"Sougueur","state":"Algeria","abbr":"DZ","country":"Algeria","lat":35.18568,"lng":1.49612,"population":71036,"region":"World"},{"city":"Souk Ahras","state":"Algeria","abbr":"DZ","country":"Algeria","lat":36.28639,"lng":7.95111,"population":153479,"region":"World"},{"city":"Souma","state":"Algeria","abbr":"DZ","country":"Algeria","lat":36.51833,"lng":2.90528,"population":40745,"region":"World"},{"city":"Sour el Ghozlane","state":"Algeria","abbr":"DZ","country":"Algeria","lat":36.14766,"lng":3.69123,"population":43985,"region":"World"},{"city":"Tadjenanet","state":"Algeria","abbr":"DZ","country":"Algeria","lat":36.12129,"lng":5.9867,"population":41833,"region":"World"},{"city":"Tadmait","state":"Algeria","abbr":"DZ","country":"Algeria","lat":36.74413,"lng":3.90045,"population":20952,"region":"World"},{"city":"Taibet","state":"Algeria","abbr":"DZ","country":"Algeria","lat":33.08515,"lng":6.3891,"population":21000,"region":"World"},{"city":"Tamalous","state":"Algeria","abbr":"DZ","country":"Algeria","lat":36.83763,"lng":6.64018,"population":32579,"region":"World"},{"city":"Tamanghasset","state":"Algeria","abbr":"DZ","country":"Algeria","lat":22.785,"lng":5.52278,"population":81752,"region":"World"},{"city":"Tazoult-Lambese","state":"Algeria","abbr":"DZ","country":"Algeria","lat":35.48171,"lng":6.26074,"population":41636,"region":"World"},{"city":"Tebesbest","state":"Algeria","abbr":"DZ","country":"Algeria","lat":33.11667,"lng":6.08333,"population":41091,"region":"World"},{"city":"Tebessa","state":"Algeria","abbr":"DZ","country":"Algeria","lat":35.40417,"lng":8.12417,"population":194461,"region":"World"},{"city":"Telerghma","state":"Algeria","abbr":"DZ","country":"Algeria","lat":36.11653,"lng":6.35434,"population":26248,"region":"World"},{"city":"Tenes","state":"Algeria","abbr":"DZ","country":"Algeria","lat":36.51076,"lng":1.30809,"population":29220,"region":"World"},{"city":"Thenia","state":"Algeria","abbr":"DZ","country":"Algeria","lat":36.72544,"lng":3.55665,"population":16180,"region":"World"},{"city":"Theniet el Had","state":"Algeria","abbr":"DZ","country":"Algeria","lat":35.87111,"lng":2.02806,"population":27628,"region":"World"},{"city":"Tiaret","state":"Algeria","abbr":"DZ","country":"Algeria","lat":35.37103,"lng":1.31699,"population":178915,"region":"World"},{"city":"Tighenif","state":"Algeria","abbr":"DZ","country":"Algeria","lat":35.41722,"lng":0.32982,"population":39938,"region":"World"},{"city":"Timimoun","state":"Algeria","abbr":"DZ","country":"Algeria","lat":29.26417,"lng":0.23583,"population":22086,"region":"World"},{"city":"Timizart","state":"Algeria","abbr":"DZ","country":"Algeria","lat":36.8,"lng":4.26667,"population":41158,"region":"World"},{"city":"Tindouf","state":"Algeria","abbr":"DZ","country":"Algeria","lat":27.67111,"lng":-8.14743,"population":45610,"region":"World"},{"city":"Tipasa","state":"Algeria","abbr":"DZ","country":"Algeria","lat":36.58972,"lng":2.44889,"population":15180,"region":"World"},{"city":"Tirmitine","state":"Algeria","abbr":"DZ","country":"Algeria","lat":36.65393,"lng":3.98143,"population":26261,"region":"World"},{"city":"Tissemsilt","state":"Algeria","abbr":"DZ","country":"Algeria","lat":35.60722,"lng":1.81081,"population":66084,"region":"World"},{"city":"Tizi Gheniff","state":"Algeria","abbr":"DZ","country":"Algeria","lat":36.58839,"lng":3.77445,"population":27974,"region":"World"},{"city":"Tizi Ouzou","state":"Algeria","abbr":"DZ","country":"Algeria","lat":36.71182,"lng":4.04591,"population":104312,"region":"World"},{"city":"Tizi Rached","state":"Algeria","abbr":"DZ","country":"Algeria","lat":36.67176,"lng":4.19176,"population":17872,"region":"World"},{"city":"Tizi-n-Tleta","state":"Algeria","abbr":"DZ","country":"Algeria","lat":36.54569,"lng":4.05712,"population":22404,"region":"World"},{"city":"Tlemcen","state":"Algeria","abbr":"DZ","country":"Algeria","lat":34.87833,"lng":-1.315,"population":173531,"region":"World"},{"city":"Tolga","state":"Algeria","abbr":"DZ","country":"Algeria","lat":34.72224,"lng":5.37845,"population":50575,"region":"World"},{"city":"Touggourt","state":"Algeria","abbr":"DZ","country":"Algeria","lat":33.11083,"lng":6.07,"population":143270,"region":"World"},{"city":"Zemoura","state":"Algeria","abbr":"DZ","country":"Algeria","lat":35.72251,"lng":0.75509,"population":21770,"region":"World"},{"city":"Zeralda","state":"Algeria","abbr":"DZ","country":"Algeria","lat":36.71169,"lng":2.84244,"population":17563,"region":"World"},{"city":"Zeribet el Oued","state":"Algeria","abbr":"DZ","country":"Algeria","lat":34.68284,"lng":6.51109,"population":23187,"region":"World"},{"city":"Zighout Youcef","state":"Algeria","abbr":"DZ","country":"Algeria","lat":36.53307,"lng":6.71237,"population":28764,"region":"World"},{"city":"Pago Pago","state":"American Samoa","abbr":"AS","country":"American Samoa","lat":-14.27806,"lng":-170.7025,"population":11500,"region":"World"},{"city":"Andorra la Vella","state":"Andorra","abbr":"AD","country":"Andorra","lat":42.50779,"lng":1.52109,"population":20430,"region":"EU"},{"city":"les Escaldes","state":"Andorra","abbr":"AD","country":"Andorra","lat":42.50729,"lng":1.53414,"population":15853,"region":"EU"},{"city":"Alto Hama","state":"Angola","abbr":"AO","country":"Angola","lat":-12.23333,"lng":15.55,"population":17000,"region":"World"},{"city":"Andulo","state":"Angola","abbr":"AO","country":"Angola","lat":-11.48676,"lng":16.69663,"population":50000,"region":"World"},{"city":"Baia Farta","state":"Angola","abbr":"AO","country":"Angola","lat":-12.60417,"lng":13.19667,"population":45000,"region":"World"},{"city":"Bailundo","state":"Angola","abbr":"AO","country":"Angola","lat":-9.57499,"lng":15.99442,"population":70481,"region":"World"},{"city":"Balombo","state":"Angola","abbr":"AO","country":"Angola","lat":-12.35426,"lng":14.77232,"population":36361,"region":"World"},{"city":"Barra do Dande","state":"Angola","abbr":"AO","country":"Angola","lat":-8.47175,"lng":13.37011,"population":75000,"region":"World"},{"city":"Belize","state":"Angola","abbr":"AO","country":"Angola","lat":-4.65,"lng":12.76667,"population":24430,"region":"World"},{"city":"Benguela","state":"Angola","abbr":"AO","country":"Angola","lat":-12.57674,"lng":13.40268,"population":555124,"region":"World"},{"city":"Bocoio","state":"Angola","abbr":"AO","country":"Angola","lat":-12.47017,"lng":14.13688,"population":35000,"region":"World"},{"city":"Buco Zau","state":"Angola","abbr":"AO","country":"Angola","lat":-4.76667,"lng":12.55,"population":40953,"region":"World"},{"city":"Caala","state":"Angola","abbr":"AO","country":"Angola","lat":-12.8525,"lng":15.56056,"population":130000,"region":"World"},{"city":"Cabinda","state":"Angola","abbr":"AO","country":"Angola","lat":-5.56198,"lng":12.19476,"population":550000,"region":"World"},{"city":"Cacuso","state":"Angola","abbr":"AO","country":"Angola","lat":-9.42102,"lng":15.74668,"population":39302,"region":"World"},{"city":"Cafunfo","state":"Angola","abbr":"AO","country":"Angola","lat":-8.7672,"lng":17.99572,"population":90000,"region":"World"},{"city":"Calulo","state":"Angola","abbr":"AO","country":"Angola","lat":-10.00055,"lng":14.89519,"population":44000,"region":"World"},{"city":"Caluquembe","state":"Angola","abbr":"AO","country":"Angola","lat":-13.86667,"lng":14.43333,"population":31000,"region":"World"},{"city":"Camabatela","state":"Angola","abbr":"AO","country":"Angola","lat":-8.18812,"lng":15.37495,"population":21767,"region":"World"},{"city":"Camacupa","state":"Angola","abbr":"AO","country":"Angola","lat":-12.01667,"lng":17.48333,"population":59000,"region":"World"},{"city":"Cambundi","state":"Angola","abbr":"AO","country":"Angola","lat":-7.46856,"lng":17.03769,"population":17212,"region":"World"},{"city":"Cambundi Catembo","state":"Angola","abbr":"AO","country":"Angola","lat":-10.07531,"lng":17.55058,"population":17212,"region":"World"},{"city":"Camucuio","state":"Angola","abbr":"AO","country":"Angola","lat":-14.11667,"lng":13.25,"population":66112,"region":"World"},{"city":"Cangandala","state":"Angola","abbr":"AO","country":"Angola","lat":-9.78333,"lng":16.43333,"population":16232,"region":"World"},{"city":"Capunda","state":"Angola","abbr":"AO","country":"Angola","lat":-11.13333,"lng":14.46667,"population":21260,"region":"World"},{"city":"Cassanguidi","state":"Angola","abbr":"AO","country":"Angola","lat":-7.48367,"lng":21.30339,"population":20000,"region":"World"},{"city":"Catabola","state":"Angola","abbr":"AO","country":"Angola","lat":-12.15,"lng":17.28333,"population":28831,"region":"World"},{"city":"Catchiungo","state":"Angola","abbr":"AO","country":"Angola","lat":-12.56598,"lng":16.22589,"population":26974,"region":"World"},{"city":"Catumbela","state":"Angola","abbr":"AO","country":"Angola","lat":-12.43002,"lng":13.54677,"population":95034,"region":"World"},{"city":"Caxito","state":"Angola","abbr":"AO","country":"Angola","lat":-8.57848,"lng":13.66425,"population":55000,"region":"World"},{"city":"Cazenga","state":"Angola","abbr":"AO","country":"Angola","lat":-8.82488,"lng":13.31318,"population":424528,"region":"World"},{"city":"Cazombo","state":"Angola","abbr":"AO","country":"Angola","lat":-11.89914,"lng":22.90216,"population":34000,"region":"World"},{"city":"Cela","state":"Angola","abbr":"AO","country":"Angola","lat":-11.42173,"lng":15.12345,"population":90000,"region":"World"},{"city":"Chinguar","state":"Angola","abbr":"AO","country":"Angola","lat":-12.55708,"lng":16.33805,"population":26811,"region":"World"},{"city":"Chitato","state":"Angola","abbr":"AO","country":"Angola","lat":-7.3,"lng":20.73333,"population":246880,"region":"World"},{"city":"Chitembo","state":"Angola","abbr":"AO","country":"Angola","lat":-13.55,"lng":16.63333,"population":25000,"region":"World"},{"city":"Conda","state":"Angola","abbr":"AO","country":"Angola","lat":-11.10862,"lng":14.33621,"population":21260,"region":"World"},{"city":"Cuango-Luzamba","state":"Angola","abbr":"AO","country":"Angola","lat":-9.14583,"lng":18.04453,"population":55000,"region":"World"},{"city":"Cubal","state":"Angola","abbr":"AO","country":"Angola","lat":-13.03865,"lng":14.2455,"population":90367,"region":"World"},{"city":"Cuemba","state":"Angola","abbr":"AO","country":"Angola","lat":-12.15,"lng":18.08333,"population":19995,"region":"World"},{"city":"Cuilo","state":"Angola","abbr":"AO","country":"Angola","lat":-8.23619,"lng":19.52566,"population":26577,"region":"World"},{"city":"Cuimba","state":"Angola","abbr":"AO","country":"Angola","lat":-6.12085,"lng":14.62086,"population":41878,"region":"World"},{"city":"Cuito","state":"Angola","abbr":"AO","country":"Angola","lat":-12.38333,"lng":16.93333,"population":355423,"region":"World"},{"city":"Cunda dia Baze","state":"Angola","abbr":"AO","country":"Angola","lat":-8.90769,"lng":17.05339,"population":15965,"region":"World"},{"city":"Dombe Grande","state":"Angola","abbr":"AO","country":"Angola","lat":-12.95167,"lng":13.1025,"population":25000,"region":"World"},{"city":"Dondo","state":"Angola","abbr":"AO","country":"Angola","lat":-9.68456,"lng":14.42788,"population":64643,"region":"World"},{"city":"Dundo","state":"Angola","abbr":"AO","country":"Angola","lat":-7.36643,"lng":20.81557,"population":177604,"region":"World"},{"city":"Gabela","state":"Angola","abbr":"AO","country":"Angola","lat":-10.85147,"lng":14.37993,"population":116903,"region":"World"},{"city":"Gama","state":"Angola","abbr":"AO","country":"Angola","lat":-8.5675,"lng":13.47639,"population":66202,"region":"World"},{"city":"Ganda","state":"Angola","abbr":"AO","country":"Angola","lat":-13.01592,"lng":14.63502,"population":65000,"region":"World"},{"city":"Golungo Alto","state":"Angola","abbr":"AO","country":"Angola","lat":-9.13333,"lng":14.76667,"population":19992,"region":"World"},{"city":"Huambo","state":"Angola","abbr":"AO","country":"Angola","lat":-12.77611,"lng":15.73917,"population":595304,"region":"World"},{"city":"Humbe","state":"Angola","abbr":"AO","country":"Angola","lat":-16.6864,"lng":14.90317,"population":35985,"region":"World"},{"city":"Ingombota","state":"Angola","abbr":"AO","country":"Angola","lat":-8.81806,"lng":13.22889,"population":370000,"region":"World"},{"city":"Lobito","state":"Angola","abbr":"AO","country":"Angola","lat":-12.3644,"lng":13.53601,"population":357950,"region":"World"},{"city":"Londuimbali","state":"Angola","abbr":"AO","country":"Angola","lat":-12.23712,"lng":15.31697,"population":17000,"region":"World"},{"city":"Longonjo","state":"Angola","abbr":"AO","country":"Angola","lat":-12.90795,"lng":15.24845,"population":23000,"region":"World"},{"city":"Luanda","state":"Angola","abbr":"AO","country":"Angola","lat":-8.83682,"lng":13.23432,"population":2776168,"region":"World"},{"city":"Luau","state":"Angola","abbr":"AO","country":"Angola","lat":-10.70727,"lng":22.22466,"population":55432,"region":"World"},{"city":"Lubalo","state":"Angola","abbr":"AO","country":"Angola","lat":-9.15445,"lng":19.28136,"population":26103,"region":"World"},{"city":"Lubango","state":"Angola","abbr":"AO","country":"Angola","lat":-14.91717,"lng":13.4925,"population":600751,"region":"World"},{"city":"Lucala","state":"Angola","abbr":"AO","country":"Angola","lat":-9.27268,"lng":15.25206,"population":19422,"region":"World"},{"city":"Lucapa","state":"Angola","abbr":"AO","country":"Angola","lat":-8.41915,"lng":20.74466,"population":110000,"region":"World"},{"city":"Luena","state":"Angola","abbr":"AO","country":"Angola","lat":-11.78333,"lng":19.91667,"population":273675,"region":"World"},{"city":"Lumbala","state":"Angola","abbr":"AO","country":"Angola","lat":-14.10165,"lng":21.43531,"population":19000,"region":"World"},{"city":"Luquembo","state":"Angola","abbr":"AO","country":"Angola","lat":-10.73912,"lng":17.71766,"population":69420,"region":"World"},{"city":"Maianga","state":"Angola","abbr":"AO","country":"Angola","lat":-8.84693,"lng":13.23698,"population":319000,"region":"World"},{"city":"Malanje","state":"Angola","abbr":"AO","country":"Angola","lat":-9.54015,"lng":16.34096,"population":455000,"region":"World"},{"city":"Maquela do Zombo","state":"Angola","abbr":"AO","country":"Angola","lat":-6.05716,"lng":15.10971,"population":42000,"region":"World"},{"city":"Matala","state":"Angola","abbr":"AO","country":"Angola","lat":-14.73272,"lng":15.03479,"population":78000,"region":"World"},{"city":"Mbanza Kongo","state":"Angola","abbr":"AO","country":"Angola","lat":-6.26667,"lng":14.23833,"population":148000,"region":"World"},{"city":"Menongue","state":"Angola","abbr":"AO","country":"Angola","lat":-14.6585,"lng":17.69099,"population":251178,"region":"World"},{"city":"Mossamedes","state":"Angola","abbr":"AO","country":"Angola","lat":-15.19611,"lng":12.15222,"population":255000,"region":"World"},{"city":"Mungo","state":"Angola","abbr":"AO","country":"Angola","lat":-11.83268,"lng":16.23613,"population":21662,"region":"World"},{"city":"Mussende","state":"Angola","abbr":"AO","country":"Angola","lat":-10.5143,"lng":16.0199,"population":33558,"region":"World"},{"city":"N'dalatando","state":"Angola","abbr":"AO","country":"Angola","lat":-9.29782,"lng":14.91162,"population":161584,"region":"World"},{"city":"N'zeto","state":"Angola","abbr":"AO","country":"Angola","lat":-7.228,"lng":12.86956,"population":28840,"region":"World"},{"city":"Negage","state":"Angola","abbr":"AO","country":"Angola","lat":-7.75938,"lng":15.2722,"population":92950,"region":"World"},{"city":"Nharea","state":"Angola","abbr":"AO","country":"Angola","lat":-11.47512,"lng":16.96496,"population":18000,"region":"World"},{"city":"Nzagi","state":"Angola","abbr":"AO","country":"Angola","lat":-8.38549,"lng":15.30126,"population":60000,"region":"World"},{"city":"Ondjiva","state":"Angola","abbr":"AO","country":"Angola","lat":-17.06667,"lng":15.73333,"population":121537,"region":"World"},{"city":"Porto Amboim","state":"Angola","abbr":"AO","country":"Angola","lat":-10.73251,"lng":13.76844,"population":91605,"region":"World"},{"city":"Quibala","state":"Angola","abbr":"AO","country":"Angola","lat":-10.73366,"lng":14.97995,"population":27128,"region":"World"},{"city":"Quipungo","state":"Angola","abbr":"AO","country":"Angola","lat":-14.81909,"lng":14.53504,"population":23014,"region":"World"},{"city":"Quissecula","state":"Angola","abbr":"AO","country":"Angola","lat":-11.39223,"lng":15.09201,"population":90000,"region":"World"},{"city":"Rangel","state":"Angola","abbr":"AO","country":"Angola","lat":-8.82644,"lng":13.26285,"population":261000,"region":"World"},{"city":"Samba","state":"Angola","abbr":"AO","country":"Angola","lat":-8.83801,"lng":-8.83801,"population":54000,"region":"World"},{"city":"Sambizanga","state":"Angola","abbr":"AO","country":"Angola","lat":-8.78883,"lng":13.27506,"population":244000,"region":"World"},{"city":"Santa Clara","state":"Angola","abbr":"AO","country":"Angola","lat":-10.19156,"lng":15.43408,"population":29000,"region":"World"},{"city":"Sanza Pombo","state":"Angola","abbr":"AO","country":"Angola","lat":-7.31473,"lng":16.0024,"population":23000,"region":"World"},{"city":"Saurimo","state":"Angola","abbr":"AO","country":"Angola","lat":-9.66078,"lng":20.39155,"population":393000,"region":"World"},{"city":"Songo","state":"Angola","abbr":"AO","country":"Angola","lat":-7.35207,"lng":14.84629,"population":31382,"region":"World"},{"city":"Soyo","state":"Angola","abbr":"AO","country":"Angola","lat":-6.1349,"lng":12.36894,"population":200920,"region":"World"},{"city":"Sumbe","state":"Angola","abbr":"AO","country":"Angola","lat":-11.20605,"lng":13.84371,"population":205832,"region":"World"},{"city":"Talatona","state":"Angola","abbr":"AO","country":"Angola","lat":-8.91783,"lng":13.18562,"population":500000,"region":"World"},{"city":"Tomboco","state":"Angola","abbr":"AO","country":"Angola","lat":-6.80517,"lng":13.33017,"population":20358,"region":"World"},{"city":"Tombua","state":"Angola","abbr":"AO","country":"Angola","lat":-15.80394,"lng":11.84485,"population":46573,"region":"World"},{"city":"Ucu Seles","state":"Angola","abbr":"AO","country":"Angola","lat":-11.41237,"lng":14.30663,"population":47421,"region":"World"},{"city":"Ucuma","state":"Angola","abbr":"AO","country":"Angola","lat":-12.96121,"lng":15.05958,"population":21809,"region":"World"},{"city":"Uige","state":"Angola","abbr":"AO","country":"Angola","lat":-7.60874,"lng":15.06131,"population":322531,"region":"World"},{"city":"Virei","state":"Angola","abbr":"AO","country":"Angola","lat":-15.727,"lng":12.94961,"population":42607,"region":"World"},{"city":"Xangongo","state":"Angola","abbr":"AO","country":"Angola","lat":-16.7444,"lng":14.97494,"population":35000,"region":"World"},{"city":"The Valley","state":"Anguilla","abbr":"AI","country":"Anguilla","lat":18.21704,"lng":-63.05783,"population":2035,"region":"Americas"},{"city":"Saint John's","state":"Antigua and Barbuda","abbr":"AG","country":"Antigua and Barbuda","lat":17.12096,"lng":-61.84329,"population":51737,"region":"Americas"},{"city":"Adrogue","state":"Argentina","abbr":"AR","country":"Argentina","lat":-34.80041,"lng":-58.38384,"population":28265,"region":"Americas"},{"city":"Aguilares","state":"Argentina","abbr":"AR","country":"Argentina","lat":-27.4315,"lng":-65.61465,"population":32494,"region":"Americas"},{"city":"Aimogasta","state":"Argentina","abbr":"AR","country":"Argentina","lat":-28.56003,"lng":-66.80737,"population":16625,"region":"Americas"},{"city":"Albardon","state":"Argentina","abbr":"AR","country":"Argentina","lat":-31.43722,"lng":-68.52556,"population":20413,"region":"Americas"},{"city":"Alderetes","state":"Argentina","abbr":"AR","country":"Argentina","lat":-26.81787,"lng":-65.14202,"population":38466,"region":"Americas"},{"city":"Allen","state":"Argentina","abbr":"AR","country":"Argentina","lat":-38.97736,"lng":-67.82714,"population":26083,"region":"Americas"},{"city":"Alta Gracia","state":"Argentina","abbr":"AR","country":"Argentina","lat":-31.64978,"lng":-64.42972,"population":40384,"region":"Americas"},{"city":"Anatuya","state":"Argentina","abbr":"AR","country":"Argentina","lat":-28.4602,"lng":-62.83354,"population":20261,"region":"Americas"},{"city":"Apostoles","state":"Argentina","abbr":"AR","country":"Argentina","lat":-27.91421,"lng":-55.75355,"population":26710,"region":"Americas"},{"city":"Aristobulo del Valle","state":"Argentina","abbr":"AR","country":"Argentina","lat":-27.09571,"lng":-54.89344,"population":20683,"region":"Americas"},{"city":"Arrecifes","state":"Argentina","abbr":"AR","country":"Argentina","lat":-34.06306,"lng":-60.10261,"population":26400,"region":"Americas"},{"city":"Arroyito","state":"Argentina","abbr":"AR","country":"Argentina","lat":-31.41917,"lng":-63.05084,"population":19577,"region":"Americas"},{"city":"Arroyo Seco","state":"Argentina","abbr":"AR","country":"Argentina","lat":-33.15365,"lng":-60.51168,"population":20620,"region":"Americas"},{"city":"Avellaneda","state":"Argentina","abbr":"AR","country":"Argentina","lat":-29.11761,"lng":-59.65834,"population":23341,"region":"Americas"},{"city":"Ayacucho","state":"Argentina","abbr":"AR","country":"Argentina","lat":-37.15276,"lng":-58.48838,"population":17364,"region":"Americas"},{"city":"Azul","state":"Argentina","abbr":"AR","country":"Argentina","lat":-36.77803,"lng":-59.85848,"population":53941,"region":"Americas"},{"city":"Bahia Blanca","state":"Argentina","abbr":"AR","country":"Argentina","lat":-38.7176,"lng":-62.26545,"population":299101,"region":"Americas"},{"city":"Balcarce","state":"Argentina","abbr":"AR","country":"Argentina","lat":-37.84638,"lng":-58.25549,"population":38823,"region":"Americas"},{"city":"Balvanera","state":"Argentina","abbr":"AR","country":"Argentina","lat":-34.61032,"lng":-58.39766,"population":152198,"region":"Americas"},{"city":"Barracas","state":"Argentina","abbr":"AR","country":"Argentina","lat":-34.64966,"lng":-58.38341,"population":77474,"region":"Americas"},{"city":"Barranqueras","state":"Argentina","abbr":"AR","country":"Argentina","lat":-27.48132,"lng":-58.93925,"population":50823,"region":"Americas"},{"city":"Belgrano","state":"Argentina","abbr":"AR","country":"Argentina","lat":-34.5627,"lng":-58.45829,"population":138942,"region":"Americas"},{"city":"Bell Ville","state":"Argentina","abbr":"AR","country":"Argentina","lat":-32.63021,"lng":-62.68883,"population":35105,"region":"Americas"},{"city":"Bella Vista","state":"Argentina","abbr":"AR","country":"Argentina","lat":-34.5651,"lng":-58.69034,"population":79737,"region":"Americas"},{"city":"Berazategui","state":"Argentina","abbr":"AR","country":"Argentina","lat":-34.76531,"lng":-58.21278,"population":180523,"region":"Americas"},{"city":"Boedo","state":"Argentina","abbr":"AR","country":"Argentina","lat":-34.63333,"lng":-58.41667,"population":48231,"region":"Americas"},{"city":"Buenos Aires","state":"Argentina","abbr":"AR","country":"Argentina","lat":-34.61315,"lng":-58.37723,"population":2891082,"region":"Americas"},{"city":"Caleta Olivia","state":"Argentina","abbr":"AR","country":"Argentina","lat":-46.44785,"lng":-67.52274,"population":36077,"region":"Americas"},{"city":"Campana","state":"Argentina","abbr":"AR","country":"Argentina","lat":-34.16327,"lng":-58.95919,"population":86860,"region":"Americas"},{"city":"Canada de Gomez","state":"Argentina","abbr":"AR","country":"Argentina","lat":-32.82033,"lng":-61.39513,"population":36000,"region":"Americas"},{"city":"Capitan Bermudez","state":"Argentina","abbr":"AR","country":"Argentina","lat":-32.82262,"lng":-60.71852,"population":27060,"region":"Americas"},{"city":"Carcarana","state":"Argentina","abbr":"AR","country":"Argentina","lat":-32.85704,"lng":-61.15114,"population":15619,"region":"Americas"},{"city":"Carmen de Patagones","state":"Argentina","abbr":"AR","country":"Argentina","lat":-40.80255,"lng":-62.98349,"population":20533,"region":"Americas"},{"city":"Casilda","state":"Argentina","abbr":"AR","country":"Argentina","lat":-33.04459,"lng":-61.16423,"population":32002,"region":"Americas"},{"city":"Castelar","state":"Argentina","abbr":"AR","country":"Argentina","lat":-34.65142,"lng":-58.64074,"population":107786,"region":"Americas"},{"city":"Catamarca","state":"Argentina","abbr":"AR","country":"Argentina","lat":-28.46957,"lng":-65.78524,"population":159139,"region":"Americas"},{"city":"Catriel","state":"Argentina","abbr":"AR","country":"Argentina","lat":-37.87552,"lng":-67.79451,"population":15169,"region":"Americas"},{"city":"Caucete","state":"Argentina","abbr":"AR","country":"Argentina","lat":-31.6515,"lng":-68.28216,"population":33609,"region":"Americas"},{"city":"Centenario","state":"Argentina","abbr":"AR","country":"Argentina","lat":-38.82955,"lng":-68.1318,"population":28956,"region":"Americas"},{"city":"Chacabuco","state":"Argentina","abbr":"AR","country":"Argentina","lat":-34.64203,"lng":-60.47124,"population":34587,"region":"Americas"},{"city":"Chajari","state":"Argentina","abbr":"AR","country":"Argentina","lat":-30.75482,"lng":-57.98196,"population":30655,"region":"Americas"},{"city":"Charata","state":"Argentina","abbr":"AR","country":"Argentina","lat":-27.21787,"lng":-61.18738,"population":27813,"region":"Americas"},{"city":"Chascomus","state":"Argentina","abbr":"AR","country":"Argentina","lat":-35.57681,"lng":-58.01215,"population":47524,"region":"Americas"},{"city":"Chilecito","state":"Argentina","abbr":"AR","country":"Argentina","lat":-29.16163,"lng":-67.49934,"population":42248,"region":"Americas"},{"city":"Chimbas","state":"Argentina","abbr":"AR","country":"Argentina","lat":-31.49313,"lng":-68.53263,"population":73829,"region":"Americas"},{"city":"Chivilcoy","state":"Argentina","abbr":"AR","country":"Argentina","lat":-34.8969,"lng":-60.01909,"population":54514,"region":"Americas"},{"city":"Cinco Saltos","state":"Argentina","abbr":"AR","country":"Argentina","lat":-38.82225,"lng":-68.06293,"population":19819,"region":"Americas"},{"city":"Cipolletti","state":"Argentina","abbr":"AR","country":"Argentina","lat":-38.93392,"lng":-67.99032,"population":75078,"region":"Americas"},{"city":"Colegiales","state":"Argentina","abbr":"AR","country":"Argentina","lat":-34.57365,"lng":-58.44924,"population":57000,"region":"Americas"},{"city":"Colon","state":"Argentina","abbr":"AR","country":"Argentina","lat":-32.22312,"lng":-58.14426,"population":58219,"region":"Americas"},{"city":"Colonia Wanda","state":"Argentina","abbr":"AR","country":"Argentina","lat":-25.97337,"lng":-54.56304,"population":15529,"region":"Americas"},{"city":"Comodoro Rivadavia","state":"Argentina","abbr":"AR","country":"Argentina","lat":-45.86256,"lng":-67.494,"population":140850,"region":"Americas"},{"city":"Concepcion del Uruguay","state":"Argentina","abbr":"AR","country":"Argentina","lat":-32.48463,"lng":-58.23217,"population":67895,"region":"Americas"},{"city":"Concordia","state":"Argentina","abbr":"AR","country":"Argentina","lat":-31.39195,"lng":-58.01706,"population":145210,"region":"Americas"},{"city":"Cordoba","state":"Argentina","abbr":"AR","country":"Argentina","lat":-31.40648,"lng":-64.18853,"population":2106734,"region":"Americas"},{"city":"Coronda","state":"Argentina","abbr":"AR","country":"Argentina","lat":-31.97365,"lng":-60.91935,"population":16975,"region":"Americas"},{"city":"Coronel Suarez","state":"Argentina","abbr":"AR","country":"Argentina","lat":-37.45859,"lng":-61.93294,"population":27000,"region":"Americas"},{"city":"Corrientes","state":"Argentina","abbr":"AR","country":"Argentina","lat":-27.46784,"lng":-58.8344,"population":346334,"region":"Americas"},{"city":"Cosquin","state":"Argentina","abbr":"AR","country":"Argentina","lat":-31.24525,"lng":-64.46574,"population":19070,"region":"Americas"},{"city":"Crespo","state":"Argentina","abbr":"AR","country":"Argentina","lat":-32.03077,"lng":-60.30619,"population":18296,"region":"Americas"},{"city":"Cruz del Eje","state":"Argentina","abbr":"AR","country":"Argentina","lat":-30.72644,"lng":-64.80387,"population":28166,"region":"Americas"},{"city":"Curuzu Cuatia","state":"Argentina","abbr":"AR","country":"Argentina","lat":-29.79145,"lng":-58.0499,"population":36390,"region":"Americas"},{"city":"Cutral-Co","state":"Argentina","abbr":"AR","country":"Argentina","lat":-38.93424,"lng":-69.23052,"population":47380,"region":"Americas"},{"city":"Dean Funes","state":"Argentina","abbr":"AR","country":"Argentina","lat":-30.42498,"lng":-64.35274,"population":20164,"region":"Americas"},{"city":"Diamante","state":"Argentina","abbr":"AR","country":"Argentina","lat":-32.0671,"lng":-60.64267,"population":19545,"region":"Americas"},{"city":"Dolores","state":"Argentina","abbr":"AR","country":"Argentina","lat":-36.31539,"lng":-57.67546,"population":25190,"region":"Americas"},{"city":"Don Torcuato","state":"Argentina","abbr":"AR","country":"Argentina","lat":-34.49459,"lng":-58.62729,"population":71356,"region":"Americas"},{"city":"El Bolson","state":"Argentina","abbr":"AR","country":"Argentina","lat":-41.96051,"lng":-71.53336,"population":15537,"region":"Americas"},{"city":"El Palomar","state":"Argentina","abbr":"AR","country":"Argentina","lat":-34.61771,"lng":-58.60153,"population":59031,"region":"Americas"},{"city":"El Soberbio","state":"Argentina","abbr":"AR","country":"Argentina","lat":-27.29662,"lng":-54.19811,"population":19571,"region":"Americas"},{"city":"Embalse","state":"Argentina","abbr":"AR","country":"Argentina","lat":-32.20681,"lng":-64.40064,"population":15900,"region":"Americas"},{"city":"Embarcacion","state":"Argentina","abbr":"AR","country":"Argentina","lat":-23.21003,"lng":-64.09965,"population":23961,"region":"Americas"},{"city":"Esperanza","state":"Argentina","abbr":"AR","country":"Argentina","lat":-31.44957,"lng":-60.93153,"population":35885,"region":"Americas"},{"city":"Esquel","state":"Argentina","abbr":"AR","country":"Argentina","lat":-42.91147,"lng":-71.31947,"population":28486,"region":"Americas"},{"city":"Esquina","state":"Argentina","abbr":"AR","country":"Argentina","lat":-30.01476,"lng":-59.5289,"population":26399,"region":"Americas"},{"city":"Ezeiza","state":"Argentina","abbr":"AR","country":"Argentina","lat":-34.8544,"lng":-58.52474,"population":115021,"region":"Americas"},{"city":"Famailla","state":"Argentina","abbr":"AR","country":"Argentina","lat":-27.05452,"lng":-65.40189,"population":30951,"region":"Americas"},{"city":"Federal","state":"Argentina","abbr":"AR","country":"Argentina","lat":-30.95619,"lng":-58.7797,"population":16333,"region":"Americas"},{"city":"Firmat","state":"Argentina","abbr":"AR","country":"Argentina","lat":-33.45937,"lng":-61.4832,"population":18294,"region":"Americas"},{"city":"Fontana","state":"Argentina","abbr":"AR","country":"Argentina","lat":-27.42039,"lng":-59.03731,"population":26745,"region":"Americas"},{"city":"Formosa","state":"Argentina","abbr":"AR","country":"Argentina","lat":-26.18489,"lng":-58.17313,"population":222226,"region":"Americas"},{"city":"Galvez","state":"Argentina","abbr":"AR","country":"Argentina","lat":-32.02957,"lng":-61.22097,"population":18374,"region":"Americas"},{"city":"Garupa","state":"Argentina","abbr":"AR","country":"Argentina","lat":-27.48315,"lng":-55.82924,"population":28814,"region":"Americas"},{"city":"General Jose de San Martin","state":"Argentina","abbr":"AR","country":"Argentina","lat":-26.53643,"lng":-59.34138,"population":31758,"region":"Americas"},{"city":"General Mosconi","state":"Argentina","abbr":"AR","country":"Argentina","lat":-22.59617,"lng":-63.811,"population":19811,"region":"Americas"},{"city":"General Pacheco","state":"Argentina","abbr":"AR","country":"Argentina","lat":-34.45256,"lng":-58.64312,"population":43287,"region":"Americas"},{"city":"General Pico","state":"Argentina","abbr":"AR","country":"Argentina","lat":-35.6593,"lng":-63.75787,"population":57029,"region":"Americas"},{"city":"General Pinedo","state":"Argentina","abbr":"AR","country":"Argentina","lat":-27.32534,"lng":-61.28101,"population":15741,"region":"Americas"},{"city":"General Roca","state":"Argentina","abbr":"AR","country":"Argentina","lat":-39.03333,"lng":-67.58333,"population":73212,"region":"Americas"},{"city":"General Villegas","state":"Argentina","abbr":"AR","country":"Argentina","lat":-35.03264,"lng":-63.01484,"population":16270,"region":"Americas"},{"city":"Gobernador Galvez","state":"Argentina","abbr":"AR","country":"Argentina","lat":-33.03016,"lng":-60.64045,"population":74650,"region":"Americas"},{"city":"Gobernador Virasora","state":"Argentina","abbr":"AR","country":"Argentina","lat":-28.05,"lng":-56.03333,"population":28756,"region":"Americas"},{"city":"Goya","state":"Argentina","abbr":"AR","country":"Argentina","lat":-29.13995,"lng":-59.26343,"population":70245,"region":"Americas"},{"city":"Granadero Baigorria","state":"Argentina","abbr":"AR","country":"Argentina","lat":-32.85683,"lng":-60.71754,"population":32427,"region":"Americas"},{"city":"Gualeguay","state":"Argentina","abbr":"AR","country":"Argentina","lat":-33.14091,"lng":-59.31257,"population":33120,"region":"Americas"},{"city":"Gualeguaychu","state":"Argentina","abbr":"AR","country":"Argentina","lat":-33.00777,"lng":-58.51836,"population":78676,"region":"Americas"},{"city":"Haedo","state":"Argentina","abbr":"AR","country":"Argentina","lat":-34.64239,"lng":-58.59212,"population":37745,"region":"Americas"},{"city":"Hurlingham","state":"Argentina","abbr":"AR","country":"Argentina","lat":-34.5904,"lng":-58.62904,"population":60000,"region":"Americas"},{"city":"Ingeniero Pablo Nogues","state":"Argentina","abbr":"AR","country":"Argentina","lat":-34.47775,"lng":-58.70652,"population":38470,"region":"Americas"},{"city":"Ituzaingo","state":"Argentina","abbr":"AR","country":"Argentina","lat":-27.58504,"lng":-56.68707,"population":168419,"region":"Americas"},{"city":"Jardin America","state":"Argentina","abbr":"AR","country":"Argentina","lat":-27.04346,"lng":-55.22698,"population":24905,"region":"Americas"},{"city":"Jesus Maria","state":"Argentina","abbr":"AR","country":"Argentina","lat":-30.98153,"lng":-64.09424,"population":26825,"region":"Americas"},{"city":"Joaquin V. Gonzalez","state":"Argentina","abbr":"AR","country":"Argentina","lat":-25.11364,"lng":-64.12628,"population":19185,"region":"Americas"},{"city":"Jose C. Paz","state":"Argentina","abbr":"AR","country":"Argentina","lat":-34.51541,"lng":-58.76813,"population":230208,"region":"Americas"},{"city":"Juan Jose Castelli","state":"Argentina","abbr":"AR","country":"Argentina","lat":-25.9466,"lng":-60.62008,"population":36588,"region":"Americas"},{"city":"Junin","state":"Argentina","abbr":"AR","country":"Argentina","lat":-34.59391,"lng":-60.94644,"population":87509,"region":"Americas"},{"city":"La Calera","state":"Argentina","abbr":"AR","country":"Argentina","lat":-31.34582,"lng":-64.33849,"population":24796,"region":"Americas"},{"city":"La Falda","state":"Argentina","abbr":"AR","country":"Argentina","lat":-31.09321,"lng":-64.48448,"population":15112,"region":"Americas"},{"city":"La Paz","state":"Argentina","abbr":"AR","country":"Argentina","lat":-30.74179,"lng":-59.64517,"population":24716,"region":"Americas"},{"city":"La Plata","state":"Argentina","abbr":"AR","country":"Argentina","lat":-34.92126,"lng":-57.95442,"population":195443,"region":"Americas"},{"city":"La Rioja","state":"Argentina","abbr":"AR","country":"Argentina","lat":-29.41328,"lng":-66.85637,"population":178872,"region":"Americas"},{"city":"Laboulaye","state":"Argentina","abbr":"AR","country":"Argentina","lat":-34.12688,"lng":-63.39083,"population":19908,"region":"Americas"},{"city":"Las Brenas","state":"Argentina","abbr":"AR","country":"Argentina","lat":-27.08819,"lng":-61.08217,"population":26955,"region":"Americas"},{"city":"Libertador General San Martin","state":"Argentina","abbr":"AR","country":"Argentina","lat":-23.81305,"lng":-64.79353,"population":49267,"region":"Americas"},{"city":"Lincoln","state":"Argentina","abbr":"AR","country":"Argentina","lat":-34.86819,"lng":-61.52929,"population":41808,"region":"Americas"},{"city":"Lomas de Zamora","state":"Argentina","abbr":"AR","country":"Argentina","lat":-34.7574,"lng":-58.40279,"population":111897,"region":"Americas"},{"city":"Los Polvorines","state":"Argentina","abbr":"AR","country":"Argentina","lat":-34.50316,"lng":-58.70596,"population":53354,"region":"Americas"},{"city":"Lujan","state":"Argentina","abbr":"AR","country":"Argentina","lat":-34.5664,"lng":-59.11478,"population":97363,"region":"Americas"},{"city":"Machagai","state":"Argentina","abbr":"AR","country":"Argentina","lat":-26.92617,"lng":-60.04852,"population":28070,"region":"Americas"},{"city":"Mar del Plata","state":"Argentina","abbr":"AR","country":"Argentina","lat":-38.00042,"lng":-57.5562,"population":593337,"region":"Americas"},{"city":"Marcos Juarez","state":"Argentina","abbr":"AR","country":"Argentina","lat":-32.6978,"lng":-62.10672,"population":24226,"region":"Americas"},{"city":"Mendoza","state":"Argentina","abbr":"AR","country":"Argentina","lat":-32.88946,"lng":-68.84582,"population":114893,"region":"Americas"},{"city":"Mercedes","state":"Argentina","abbr":"AR","country":"Argentina","lat":-34.65072,"lng":-59.43143,"population":63284,"region":"Americas"},{"city":"Merlo","state":"Argentina","abbr":"AR","country":"Argentina","lat":-34.66536,"lng":-58.72744,"population":268961,"region":"Americas"},{"city":"Monte Caseros","state":"Argentina","abbr":"AR","country":"Argentina","lat":-30.2518,"lng":-57.63537,"population":24671,"region":"Americas"},{"city":"Montecarlo","state":"Argentina","abbr":"AR","country":"Argentina","lat":-26.56849,"lng":-54.7579,"population":22229,"region":"Americas"},{"city":"Monteros","state":"Argentina","abbr":"AR","country":"Argentina","lat":-27.16825,"lng":-65.49892,"population":23771,"region":"Americas"},{"city":"Moron","state":"Argentina","abbr":"AR","country":"Argentina","lat":-34.65118,"lng":-58.62205,"population":99066,"region":"Americas"},{"city":"Morteros","state":"Argentina","abbr":"AR","country":"Argentina","lat":-30.71066,"lng":-62.00714,"population":15129,"region":"Americas"},{"city":"Muniz","state":"Argentina","abbr":"AR","country":"Argentina","lat":-34.55622,"lng":-58.70739,"population":26844,"region":"Americas"},{"city":"Necochea","state":"Argentina","abbr":"AR","country":"Argentina","lat":-38.5545,"lng":-58.73961,"population":73557,"region":"Americas"},{"city":"Neuquen","state":"Argentina","abbr":"AR","country":"Argentina","lat":-38.95078,"lng":-68.0592,"population":231198,"region":"Americas"},{"city":"Nogoya","state":"Argentina","abbr":"AR","country":"Argentina","lat":-32.39375,"lng":-59.78955,"population":43195,"region":"Americas"},{"city":"Nueve de Julio","state":"Argentina","abbr":"AR","country":"Argentina","lat":-35.44394,"lng":-60.88463,"population":34718,"region":"Americas"},{"city":"Obera","state":"Argentina","abbr":"AR","country":"Argentina","lat":-27.48683,"lng":-55.11994,"population":56528,"region":"Americas"},{"city":"Olavarria","state":"Argentina","abbr":"AR","country":"Argentina","lat":-36.89384,"lng":-60.32319,"population":89721,"region":"Americas"},{"city":"Palpala","state":"Argentina","abbr":"AR","country":"Argentina","lat":-24.25798,"lng":-65.21358,"population":48199,"region":"Americas"},{"city":"Parana","state":"Argentina","abbr":"AR","country":"Argentina","lat":-31.73271,"lng":-60.52897,"population":247139,"region":"Americas"},{"city":"Paso de los Libres","state":"Argentina","abbr":"AR","country":"Argentina","lat":-29.71251,"lng":-57.08771,"population":43805,"region":"Americas"},{"city":"Pehuajo","state":"Argentina","abbr":"AR","country":"Argentina","lat":-35.81081,"lng":-61.89897,"population":44783,"region":"Americas"},{"city":"Perez","state":"Argentina","abbr":"AR","country":"Argentina","lat":-32.99835,"lng":-60.76791,"population":24436,"region":"Americas"},{"city":"Pergamino","state":"Argentina","abbr":"AR","country":"Argentina","lat":-33.89101,"lng":-60.57462,"population":91399,"region":"Americas"},{"city":"Pilar","state":"Argentina","abbr":"AR","country":"Argentina","lat":-34.45867,"lng":-58.91398,"population":81120,"region":"Americas"},{"city":"Pirane","state":"Argentina","abbr":"AR","country":"Argentina","lat":-25.73271,"lng":-59.10989,"population":19124,"region":"Americas"},{"city":"Plottier","state":"Argentina","abbr":"AR","country":"Argentina","lat":-38.96667,"lng":-68.23333,"population":25186,"region":"Americas"},{"city":"Pocito","state":"Argentina","abbr":"AR","country":"Argentina","lat":-31.68333,"lng":-68.58333,"population":40969,"region":"Americas"},{"city":"Pontevedra","state":"Argentina","abbr":"AR","country":"Argentina","lat":-34.74947,"lng":-58.70158,"population":33515,"region":"Americas"},{"city":"Posadas","state":"Argentina","abbr":"AR","country":"Argentina","lat":-27.39184,"lng":-55.92379,"population":305874,"region":"Americas"},{"city":"Presidencia Roque Saenz Pena","state":"Argentina","abbr":"AR","country":"Argentina","lat":-26.79095,"lng":-60.44132,"population":81879,"region":"Americas"},{"city":"Profesor Salvador Mazza","state":"Argentina","abbr":"AR","country":"Argentina","lat":-22.04897,"lng":-63.69075,"population":25000,"region":"Americas"},{"city":"Puerto Eldorado","state":"Argentina","abbr":"AR","country":"Argentina","lat":-26.40843,"lng":-54.69463,"population":54189,"region":"Americas"},{"city":"Puerto Esperanza","state":"Argentina","abbr":"AR","country":"Argentina","lat":-26.02267,"lng":-54.61356,"population":15579,"region":"Americas"},{"city":"Puerto Iguazu","state":"Argentina","abbr":"AR","country":"Argentina","lat":-25.59912,"lng":-54.57355,"population":32038,"region":"Americas"},{"city":"Puerto Madryn","state":"Argentina","abbr":"AR","country":"Argentina","lat":-42.76848,"lng":-65.03827,"population":64555,"region":"Americas"},{"city":"Puerto Rico","state":"Argentina","abbr":"AR","country":"Argentina","lat":-26.8089,"lng":-55.02147,"population":17491,"region":"Americas"},{"city":"Punta Alta","state":"Argentina","abbr":"AR","country":"Argentina","lat":-38.8805,"lng":-62.07503,"population":57209,"region":"Americas"},{"city":"Quilmes","state":"Argentina","abbr":"AR","country":"Argentina","lat":-34.72065,"lng":-58.25454,"population":262379,"region":"Americas"},{"city":"Quitilipi","state":"Argentina","abbr":"AR","country":"Argentina","lat":-26.8708,"lng":-60.21537,"population":32083,"region":"Americas"},{"city":"Rafaela","state":"Argentina","abbr":"AR","country":"Argentina","lat":-31.25285,"lng":-61.49078,"population":88713,"region":"Americas"},{"city":"Rawson","state":"Argentina","abbr":"AR","country":"Argentina","lat":-43.30031,"lng":-65.10564,"population":26335,"region":"Americas"},{"city":"Reconquista","state":"Argentina","abbr":"AR","country":"Argentina","lat":-29.15,"lng":-59.65,"population":90184,"region":"Americas"},{"city":"Resistencia","state":"Argentina","abbr":"AR","country":"Argentina","lat":-27.46363,"lng":-58.98665,"population":290793,"region":"Americas"},{"city":"Retiro","state":"Argentina","abbr":"AR","country":"Argentina","lat":-34.58333,"lng":-58.38333,"population":38635,"region":"Americas"},{"city":"Rio Ceballos","state":"Argentina","abbr":"AR","country":"Argentina","lat":-31.1697,"lng":-64.3175,"population":16632,"region":"Americas"},{"city":"Rio Colorado","state":"Argentina","abbr":"AR","country":"Argentina","lat":-38.99081,"lng":-64.09574,"population":16132,"region":"Americas"},{"city":"Rio Cuarto","state":"Argentina","abbr":"AR","country":"Argentina","lat":-33.13044,"lng":-64.35272,"population":157010,"region":"Americas"},{"city":"Rio Gallegos","state":"Argentina","abbr":"AR","country":"Argentina","lat":-51.6253,"lng":-69.25229,"population":95796,"region":"Americas"},{"city":"Rio Grande","state":"Argentina","abbr":"AR","country":"Argentina","lat":-53.78773,"lng":-67.70975,"population":52681,"region":"Americas"},{"city":"Rio Segundo","state":"Argentina","abbr":"AR","country":"Argentina","lat":-31.6501,"lng":-63.91165,"population":18155,"region":"Americas"},{"city":"Rio Tercero","state":"Argentina","abbr":"AR","country":"Argentina","lat":-32.17675,"lng":-64.11295,"population":53389,"region":"Americas"},{"city":"Rosario","state":"Argentina","abbr":"AR","country":"Argentina","lat":-32.94682,"lng":-60.63932,"population":948312,"region":"Americas"},{"city":"Rufino","state":"Argentina","abbr":"AR","country":"Argentina","lat":-34.26237,"lng":-62.71128,"population":18361,"region":"Americas"},{"city":"Saladas","state":"Argentina","abbr":"AR","country":"Argentina","lat":-28.25504,"lng":-58.62386,"population":18349,"region":"Americas"},{"city":"Saladillo","state":"Argentina","abbr":"AR","country":"Argentina","lat":-35.63884,"lng":-59.77938,"population":35669,"region":"Americas"},{"city":"Salta","state":"Argentina","abbr":"AR","country":"Argentina","lat":-24.80645,"lng":-65.41999,"population":520683,"region":"Americas"},{"city":"Salto","state":"Argentina","abbr":"AR","country":"Argentina","lat":-34.29175,"lng":-60.2545,"population":40157,"region":"Americas"},{"city":"San Antonio de Padua","state":"Argentina","abbr":"AR","country":"Argentina","lat":-34.66267,"lng":-58.69819,"population":37745,"region":"Americas"},{"city":"San Antonio Oeste","state":"Argentina","abbr":"AR","country":"Argentina","lat":-40.73193,"lng":-64.94769,"population":16966,"region":"Americas"},{"city":"San Carlos de Bariloche","state":"Argentina","abbr":"AR","country":"Argentina","lat":-41.14557,"lng":-71.30822,"population":95394,"region":"Americas"},{"city":"San Francisco","state":"Argentina","abbr":"AR","country":"Argentina","lat":-31.42497,"lng":-62.08404,"population":59062,"region":"Americas"},{"city":"San Isidro","state":"Argentina","abbr":"AR","country":"Argentina","lat":-34.46971,"lng":-58.52111,"population":45190,"region":"Americas"},{"city":"San Javier","state":"Argentina","abbr":"AR","country":"Argentina","lat":-30.58072,"lng":-59.92962,"population":15606,"region":"Americas"},{"city":"San Jorge","state":"Argentina","abbr":"AR","country":"Argentina","lat":-31.89706,"lng":-61.85993,"population":16873,"region":"Americas"},{"city":"San Jose de Jachal","state":"Argentina","abbr":"AR","country":"Argentina","lat":-30.24162,"lng":-68.74662,"population":21018,"region":"Americas"},{"city":"San Juan","state":"Argentina","abbr":"AR","country":"Argentina","lat":-31.53726,"lng":-68.52568,"population":109123,"region":"Americas"},{"city":"San Justo","state":"Argentina","abbr":"AR","country":"Argentina","lat":-34.68107,"lng":-58.56379,"population":105274,"region":"Americas"},{"city":"San Lorenzo","state":"Argentina","abbr":"AR","country":"Argentina","lat":-28.13442,"lng":-58.76685,"population":47626,"region":"Americas"},{"city":"San Luis","state":"Argentina","abbr":"AR","country":"Argentina","lat":-33.2914,"lng":-66.32467,"population":169947,"region":"Americas"},{"city":"San Luis del Palmar","state":"Argentina","abbr":"AR","country":"Argentina","lat":-27.50766,"lng":-58.55625,"population":15347,"region":"Americas"},{"city":"San Martin","state":"Argentina","abbr":"AR","country":"Argentina","lat":-33.08338,"lng":-68.47312,"population":82549,"region":"Americas"},{"city":"San Martin de los Andes","state":"Argentina","abbr":"AR","country":"Argentina","lat":-40.15789,"lng":-71.35337,"population":23519,"region":"Americas"},{"city":"San Miguel","state":"Argentina","abbr":"AR","country":"Argentina","lat":-34.54335,"lng":-58.71229,"population":168762,"region":"Americas"},{"city":"San Miguel de Tucuman","state":"Argentina","abbr":"AR","country":"Argentina","lat":-26.81601,"lng":-65.21051,"population":548866,"region":"Americas"},{"city":"San Nicolas de los Arroyos","state":"Argentina","abbr":"AR","country":"Argentina","lat":-33.33425,"lng":-60.2108,"population":134217,"region":"Americas"},{"city":"San Pedro","state":"Argentina","abbr":"AR","country":"Argentina","lat":-33.67918,"lng":-59.66633,"population":47452,"region":"Americas"},{"city":"San Pedro de Jujuy","state":"Argentina","abbr":"AR","country":"Argentina","lat":-24.23127,"lng":-64.86614,"population":58430,"region":"Americas"},{"city":"San Rafael","state":"Argentina","abbr":"AR","country":"Argentina","lat":-34.61531,"lng":-68.33238,"population":118009,"region":"Americas"},{"city":"San Ramon de la Nueva Oran","state":"Argentina","abbr":"AR","country":"Argentina","lat":-23.13705,"lng":-64.32426,"population":74059,"region":"Americas"},{"city":"San Salvador de Jujuy","state":"Argentina","abbr":"AR","country":"Argentina","lat":-24.1928,"lng":-65.29342,"population":257970,"region":"Americas"},{"city":"San Vicente","state":"Argentina","abbr":"AR","country":"Argentina","lat":-26.61667,"lng":-54.13333,"population":38247,"region":"Americas"},{"city":"Santa Elena","state":"Argentina","abbr":"AR","country":"Argentina","lat":-30.94432,"lng":-59.78832,"population":18410,"region":"Americas"},{"city":"Santa Fe","state":"Argentina","abbr":"AR","country":"Argentina","lat":-31.64881,"lng":-60.70868,"population":391164,"region":"Americas"},{"city":"Santa Lucia","state":"Argentina","abbr":"AR","country":"Argentina","lat":-31.54055,"lng":-68.49794,"population":43565,"region":"Americas"},{"city":"Santa Rosa","state":"Argentina","abbr":"AR","country":"Argentina","lat":-36.61617,"lng":-64.28991,"population":102860,"region":"Americas"},{"city":"Santiago del Estero","state":"Argentina","abbr":"AR","country":"Argentina","lat":-27.80047,"lng":-64.26285,"population":252192,"region":"Americas"},{"city":"Santo Tome","state":"Argentina","abbr":"AR","country":"Argentina","lat":-28.55104,"lng":-56.04125,"population":22634,"region":"Americas"},{"city":"Santos Lugares","state":"Argentina","abbr":"AR","country":"Argentina","lat":-34.60306,"lng":-58.54074,"population":37267,"region":"Americas"},{"city":"Sunchales","state":"Argentina","abbr":"AR","country":"Argentina","lat":-30.94478,"lng":-61.5597,"population":18757,"region":"Americas"},{"city":"Tafi Viejo","state":"Argentina","abbr":"AR","country":"Argentina","lat":-26.7333,"lng":-65.26146,"population":48459,"region":"Americas"},{"city":"Tandil","state":"Argentina","abbr":"AR","country":"Argentina","lat":-37.3287,"lng":-59.1369,"population":115877,"region":"Americas"},{"city":"Tartagal","state":"Argentina","abbr":"AR","country":"Argentina","lat":-22.51682,"lng":-63.8056,"population":60819,"region":"Americas"},{"city":"Termas de Rio Hondo","state":"Argentina","abbr":"AR","country":"Argentina","lat":-27.49362,"lng":-64.85972,"population":27838,"region":"Americas"},{"city":"Tigre","state":"Argentina","abbr":"AR","country":"Argentina","lat":-34.42603,"lng":-58.57962,"population":31106,"region":"Americas"},{"city":"Tortuguitas","state":"Argentina","abbr":"AR","country":"Argentina","lat":-34.47513,"lng":-58.75367,"population":41390,"region":"Americas"},{"city":"Trelew","state":"Argentina","abbr":"AR","country":"Argentina","lat":-43.24895,"lng":-65.30505,"population":97915,"region":"Americas"},{"city":"Tres Arroyos","state":"Argentina","abbr":"AR","country":"Argentina","lat":-38.37694,"lng":-60.27563,"population":47136,"region":"Americas"},{"city":"Tres Isletas","state":"Argentina","abbr":"AR","country":"Argentina","lat":-26.34067,"lng":-60.43207,"population":24747,"region":"Americas"},{"city":"Unquillo","state":"Argentina","abbr":"AR","country":"Argentina","lat":-31.23717,"lng":-64.31176,"population":15369,"region":"Americas"},{"city":"Ushuaia","state":"Argentina","abbr":"AR","country":"Argentina","lat":-54.81084,"lng":-68.31591,"population":56825,"region":"Americas"},{"city":"Veinticinco de Mayo","state":"Argentina","abbr":"AR","country":"Argentina","lat":-35.43247,"lng":-60.17156,"population":24668,"region":"Americas"},{"city":"Venado Tuerto","state":"Argentina","abbr":"AR","country":"Argentina","lat":-33.74585,"lng":-61.96711,"population":72340,"region":"Americas"},{"city":"Vera","state":"Argentina","abbr":"AR","country":"Argentina","lat":-29.45986,"lng":-60.21315,"population":19797,"region":"Americas"},{"city":"Victoria","state":"Argentina","abbr":"AR","country":"Argentina","lat":-32.61841,"lng":-60.15478,"population":25139,"region":"Americas"},{"city":"Viedma","state":"Argentina","abbr":"AR","country":"Argentina","lat":-40.81519,"lng":-63.0004,"population":48940,"region":"Americas"},{"city":"Villa Allende","state":"Argentina","abbr":"AR","country":"Argentina","lat":-31.29368,"lng":-64.2977,"population":21683,"region":"Americas"},{"city":"Villa Angela","state":"Argentina","abbr":"AR","country":"Argentina","lat":-27.57679,"lng":-60.71114,"population":43511,"region":"Americas"},{"city":"Villa Carlos Paz","state":"Argentina","abbr":"AR","country":"Argentina","lat":-31.4183,"lng":-64.49008,"population":69451,"region":"Americas"},{"city":"Villa Constitucion","state":"Argentina","abbr":"AR","country":"Argentina","lat":-33.22795,"lng":-60.32994,"population":44271,"region":"Americas"},{"city":"Villa de Mayo","state":"Argentina","abbr":"AR","country":"Argentina","lat":-34.5108,"lng":-58.68059,"population":43405,"region":"Americas"},{"city":"Villa Dolores","state":"Argentina","abbr":"AR","country":"Argentina","lat":-31.94504,"lng":-65.19025,"population":28009,"region":"Americas"},{"city":"Villa Gesell","state":"Argentina","abbr":"AR","country":"Argentina","lat":-37.26394,"lng":-56.97304,"population":23257,"region":"Americas"},{"city":"Villa Lugano","state":"Argentina","abbr":"AR","country":"Argentina","lat":-34.67907,"lng":-58.47263,"population":114000,"region":"Americas"},{"city":"Villa Maria","state":"Argentina","abbr":"AR","country":"Argentina","lat":-32.40751,"lng":-63.24016,"population":92453,"region":"Americas"},{"city":"Villa Mercedes","state":"Argentina","abbr":"AR","country":"Argentina","lat":-33.67571,"lng":-65.45783,"population":96781,"region":"Americas"},{"city":"Villa Nueva","state":"Argentina","abbr":"AR","country":"Argentina","lat":-32.43289,"lng":-63.24811,"population":16841,"region":"Americas"},{"city":"Villa Ocampo","state":"Argentina","abbr":"AR","country":"Argentina","lat":-28.48726,"lng":-59.35421,"population":19101,"region":"Americas"},